"OBJECTID","GIS_DB_ID","Sign_Up","Route","Direction","Sequence","Stop_ID","Stop_Abbre","Stop_Name","Mode","Time_Point","Time_Poi_1","Time_Poi_2","School","Source","Comments","Weekday_Bo","Weekday_Le","Weekday_To","Saturday_B","Saturday_L","Saturday_T","Sunday_Boa","Sunday_Lea","Sunday_Tot","Latitude","Longitude","GlobalID","year"
11989,"5220561S","City","52","Southbound",38,20561,"CITBRYSW","City Av & Bryn Mawr Av","Bus","No",0,NA,"No","APC (UTA)",NA,1,1,2,0,0,0,0,0,0,39.99922,-75.230851,"{48FB23BC-71C5-435E-90C3-AE3B1B74B810}","2018"
11990,"5220589N","City","52","Northbound",59,20589,"54TCITNO","54th St & City Av","Bus","Yes",422,"54ST","No","APC (UTA)",NA,7,65,72,0,0,0,0,0,0,39.99696,-75.235135,"{F2B3138B-A6AE-4376-8CD0-4997930BDD7C}","2018"
11991,"5220591N","City","52","Northbound",56,20591,"CIT54HNE","City Av & 54th St","Bus","Yes",0,"54CLE","No","APC (UTA)",NA,62,442,504,41,334,375,44,257,301,39.996969,-75.235383,"{F2CA5A8B-D310-44BC-A613-FFF3362C52B0}","2018"
11992,"5220592N","City","52","Northbound",63,20592,"CIT52NNE","City Av & 52nd St","Bus","No",0,NA,"No","APC (UTA)",NA,0,1,1,0,0,0,0,0,0,39.997965,-75.233289,"{3C7B4457-1A7D-4757-9E15-D8F4605AB6C4}","2018"
11993,"5220741N","City","52","Northbound",3,20741,"WOO51SSW","Woodland Av & 51st St","Bus","No",0,NA,"No","APC (UTA)",NA,35,4,40,29,7,36,22,3,25,39.939192,-75.215102,"{149A6A5E-B4B1-4245-ACC0-9AA88AE5F426}","2018"
11994,"5220742N","City","52","Northbound",4,20742,"WOO52NSW","Woodland Av & 52nd St","Bus","No",0,NA,"No","APC (UTA)",NA,80,13,93,54,8,62,54,5,58,39.938408,-75.216214,"{2911108C-A47A-405A-A923-200563EBA370}","2018"
11995,"5220743N","City","52","Northbound",5,20743,"WOO53RSW","Woodland Av & 53rd St","Bus","No",0,NA,"No","APC (UTA)",NA,63,9,72,45,6,51,30,3,33,39.937438,-75.217598,"{020989CA-6FAC-44A9-9C91-91FB725E465E}","2018"
11996,"5221256N","City","52","Northbound",1,21256,"49TWOOSE","49th St & Woodland Av","Bus","Yes",187,"49WO","No","APC (UTA)",NA,78,0,78,47,0,47,51,0,51,39.940866,-75.212759,"{63E5B05A-7A8C-4BF9-8A41-BE53B5E1BCDB}","2018"
11997,"5221256S","City","52","Southbound",95,21256,"49TWOOSE","49th St & Woodland Av","Bus","Yes",187,"49WO","No","APC (UTA)",NA,0,465,465,0,303,303,0,205,205,39.940866,-75.212759,"{059DA34C-D15D-4A0B-A474-4DF6ACD43904}","2018"
11998,"5221257N","City","52","Northbound",10,21257,"54TCHENW","54th St & Chester Av","Bus","Yes",0,"54CH","No","APC (UTA)",NA,461,76,538,265,41,306,192,56,249,39.93958,-75.222775,"{D6A9B918-87EC-4080-97F6-CB11E3663F30}","2018"
11999,"5221257S","City","52","Southbound",87,21257,"54TCHENW","54th St & Chester Av","Bus","Yes",472,"54CH","No","APC (UTA)",NA,0,251,251,0,0,0,0,0,0,39.93958,-75.222775,"{9EEACCA6-D86E-4A26-AE88-9C85E5BFF704}","2018"
12000,"5221652S","City","52","Southbound",2,21652,"BLACONNE","Black Rock Rd & Conshohocken State","Bus","No",0,NA,"No","APC (UTA)",NA,0,0,1,0,0,0,0,0,0,40.03954,-75.279853,"{AC862012-7BE4-40EA-A36F-76DEE3BB08EA}","2018"
12001,"5221653S","City","52","Southbound",3,21653,"CONMAPSE","Conshohocken State Rd & Maplecrest","Bus","No",0,NA,"No","APC (UTA)",NA,0,0,0,0,0,0,0,0,0,40.037164,-75.277908,"{57B3C34A-B045-443D-9396-930D36C3E3A9}","2018"
12002,"5221656S","City","52","Southbound",5,21656,"HOLCONNE","Hollow Rd & Conshohocken State - FS","Bus","No",0,NA,"No","APC (UTA)",NA,0,0,0,0,0,0,0,0,0,40.031165,-75.262824,"{98C2AB94-987D-47EA-8743-E632E436121A}","2018"
12003,"5221658N","City","52","Northbound",85,21658,"HAGBOBNW","Hagys Ford Rd & Bobarn Rd - FS","Bus","No",0,NA,"No","APC (UTA)",NA,0,1,1,0,0,0,0,0,0,40.035042,-75.259079,"{E7BD1885-7197-4546-AD4F-E5F2A12DCBA1}","2018"
12004,"5221658S","City","52","Southbound",6,21658,"HAGBOBNW","Hagys Ford Rd & Bobarn Rd - FS","Bus","No",0,NA,"No","APC (UTA)",NA,0,0,0,0,0,0,0,0,0,40.035042,-75.259079,"{5B9C32CD-4FAB-4DDC-82F1-98A3E807937E}","2018"
12005,"5221663N","City","52","Northbound",95,21663,"HAGBOBSE","Hagys Ford Rd & Bobarn Dr","Bus","No",0,NA,"No","APC (UTA)",NA,0,0,0,0,0,0,0,0,0,40.034927,-75.259268,"{E3E58BB6-9D21-4DF5-A84F-84CB25080A68}","2018"
12006,"5221663S","City","52","Southbound",16,21663,"HAGBOBSE","Hagys Ford Rd & Bobarn Dr","Bus","No",0,NA,"No","APC (UTA)",NA,0,0,0,0,0,0,0,0,0,40.034927,-75.259268,"{40D81041-BCF2-4419-B2AF-8A0E08B1250A}","2018"
12007,"5221667S","City","52","Southbound",17,21667,"HAGTOWSE","Hagys Ford Rd & Tower Ln - MBFS","Bus","No",0,NA,"No","APC (UTA)",NA,0,0,0,0,0,0,0,0,0,40.032514,-75.257288,"{3A49B42F-023D-4BAC-A740-CBA493003AE7}","2018"
12008,"5221668S","City","52","Southbound",18,21668,"HAGFLASE","Hagys Ford Rd & Flat Rock Rd","Bus","No",0,NA,"No","APC (UTA)",NA,1,0,1,0,0,0,0,0,0,40.030234,-75.254361,"{547A083D-8333-46E3-9A05-F63351EF002E}","2018"
12009,"5221669S","City","52","Southbound",22,21669,"CONHAGSE","Conshohocken & Hagys Ford Rd - FS","Bus","No",0,NA,"No","APC (UTA)",NA,1,0,1,0,0,0,0,0,0,40.025241,-75.257683,"{0BE9F5BC-5452-4AE9-B8F7-51867C05C488}","2018"
12010,"5221673S","City","52","Southbound",23,21673,"CONCENSE","Conshohocken St & Centennial Rd","Bus","No",0,NA,"No","APC (UTA)",NA,1,0,1,0,0,0,0,0,0,40.023489,-75.256068,"{628301AB-C590-4AAF-B7B2-C30104026AD9}","2018"
12011,"5221677S","City","52","Southbound",26,21677,"CONROCSE","Conshohocken State Rd & RockHill Rd","Bus","No",0,NA,"No","APC (UTA)",NA,0,0,0,0,0,0,0,0,0,40.018254,-75.24029,"{43506EA3-8BE5-4B7C-8CC3-4BCDCC30DDA7}","2018"
12012,"5221678S","City","52","Southbound",30,21678,"CONLEVSE","Conshohocken State Rd & LeveringMil","Bus","No",0,NA,"No","APC (UTA)",NA,1,0,2,0,0,0,0,0,0,40.013473,-75.236201,"{F55E3FA5-7CD8-4675-8D83-377547B28630}","2018"
12013,"5221679S","City","52","Southbound",32,21679,"CONLODSE","Conshohocken State Rd & Lodges Ln","Bus","No",0,NA,"No","APC (UTA)",NA,0,0,0,0,0,0,0,0,0,40.010756,-75.234081,"{4C976735-497C-4259-B2CE-5751032BA452}","2018"
12014,"5221680S","City","52","Southbound",33,21680,"CONBALSO","Conshohocken State Rd & Bala Av","Bus","No",0,NA,"No","APC (UTA)",NA,0,0,0,0,0,0,0,0,0,40.007532,-75.232802,"{E3ED1F97-53A7-4E12-B299-194E98AF9B88}","2018"
12015,"5221682S","City","52","Southbound",36,21682,"BALUNISE","Bala Av & Union Av","Bus","No",0,NA,"No","APC (UTA)",NA,0,0,0,0,0,0,0,0,0,40.003174,-75.231277,"{184AA2DD-23C0-420B-BCB1-D3629A8D9AC4}","2018"
12016,"5221683S","City","52","Southbound",41,21683,"54TOVESO","54th St & Overbrook Av","Bus","No",0,NA,"No","APC (UTA)",NA,80,11,91,30,2,32,16,2,18,39.994888,-75.234136,"{22D45425-781F-4E1C-A8BF-3AEA190935ED}","2018"
12017,"5221684S","City","52","Southbound",42,21684,"54TWOOSO","54th St & Woodbine Av","Bus","No",0,NA,"No","APC (UTA)",NA,26,5,31,15,3,19,20,3,23,39.992335,-75.233789,"{1037BCA7-3C8E-4364-9D1A-859F4050E86E}","2018"
12018,"5221685S","City","52","Southbound",43,21685,"54TWODSO","54th St & Woodcrest Av","Bus","No",0,NA,"No","APC (UTA)",NA,46,10,56,35,7,42,29,3,32,39.990799,-75.233604,"{BEF8CCB4-F0A9-4B7C-BB37-3DCEF135A391}","2018"
12019,"5221686S","City","52","Southbound",44,21686,"54TGAISO","54th St & Gainor Rd","Bus","No",0,NA,"No","APC (UTA)",NA,53,17,69,39,8,47,36,7,43,39.988995,-75.23303,"{EFD845CE-720C-46B7-B193-BDB64FC564DE}","2018"
12020,"5221687S","City","52","Southbound",45,21687,"54TLEBSO","54th St & Lebanon Av","Bus","No",0,NA,"No","APC (UTA)",NA,92,42,135,61,18,79,46,10,56,39.987468,-75.232514,"{47A928B7-4322-4C84-BFAC-E25CF6BB0AE1}","2018"
12021,"5221688S","City","52","Southbound",46,21688,"54TBERSO","54th St & Berks St","Bus","No",0,NA,"No","APC (UTA)",NA,267,69,336,159,33,192,93,28,121,39.985941,-75.231975,"{BA948249-5D67-42E4-961F-75CE0360F59C}","2018"
12022,"5221689S","City","52","Southbound",48,21689,"54TUPLSO","54th St & Upland Way","Bus","No",0,NA,"No","APC (UTA)",NA,59,14,72,45,8,53,28,6,34,39.982575,-75.230826,"{6CD8944F-1E3A-4CB9-9EC0-C836539EEB38}","2018"
12023,"5221690S","City","52","Southbound",49,21690,"54TOXFSO","54th St & Oxford St","Bus","No",0,NA,"No","APC (UTA)",NA,21,4,25,12,3,15,15,1,15,39.981771,-75.230321,"{1B238D75-7690-4EEA-AE4E-2C6663C55B6F}","2018"
12024,"5221691S","City","52","Southbound",51,21691,"JEFLINSE","Jefferson St & Lindenwood St","Bus","No",0,NA,"No","APC (UTA)",NA,41,13,54,23,4,27,15,2,17,39.980097,-75.227301,"{7FBDA290-6AE6-4CC9-BC45-F7AA2E6D0383}","2018"
12025,"5221692S","City","52","Southbound",59,21692,"52NLANSO","52nd St & Lancaster Av - FS","Bus","Yes",2331,"52LA","No","APC (UTA)",NA,405,138,543,208,65,272,127,35,162,39.977017,-75.22692,"{894D2286-9081-45CF-B0AC-DA4D67A97C4D}","2018"
12026,"5221693S","City","52","Southbound",60,21693,"52NMEDSO","52nd St & Media St","Bus","No",0,NA,"No","APC (UTA)",NA,135,33,168,38,4,43,28,10,38,39.975812,-75.226746,"{41B3C505-6984-4901-A526-B2339E3BF333}","2018"
12027,"5221694S","City","52","Southbound",61,21694,"52NMASSO","52nd St & Master St - FS","Bus","No",0,NA,"No","APC (UTA)",NA,188,50,238,118,32,149,95,21,116,39.974107,-75.22642,"{61D6BF39-B9BC-4D8E-B5E6-3BD99FEDACDF}","2018"
12028,"5221695S","City","52","Southbound",62,21695,"52NTHOSO","52nd St & Thompson St - FS","Bus","No",0,NA,"No","APC (UTA)",NA,130,45,175,80,26,106,55,14,69,39.97275,-75.226176,"{F3549597-F7F1-423E-9093-56A54CB462EC}","2018"
12029,"5221696S","City","52","Southbound",64,21696,"52NWYASO","52nd St & Wyalusing Av - FS","Bus","No",0,NA,"No","APC (UTA)",NA,130,36,166,73,30,103,53,15,68,39.969313,-75.22543,"{876D518B-BF4D-460C-9896-A6B23CB360A9}","2018"
12030,"5221697S","City","52","Southbound",65,21697,"52NWESSO","52nd St & Westminster Av - FS","Bus","No",0,NA,"No","APC (UTA)",NA,186,63,249,106,36,142,72,31,103,39.967929,-75.225186,"{9C2F452E-FE8F-4DDC-BAA3-93D7A7E9AD31}","2018"
12031,"5221698S","City","52","Southbound",66,21698,"52NPARSO","52nd St & Parrish St - FS","Bus","No",0,NA,"No","APC (UTA)",NA,123,51,174,62,30,92,49,20,68,39.966411,-75.224954,"{96F32F0D-B0EF-4F52-95B1-F9A11CA36EA3}","2018"
12032,"5221699S","City","52","Southbound",68,21699,"52NRACSO","52nd St & Race St","Bus","No",0,NA,"No","APC (UTA)",NA,90,41,131,38,31,68,39,22,61,39.963153,-75.224325,"{D8441323-EE26-4172-9BE5-0A9AD9524375}","2018"
12033,"5221700S","City","52","Southbound",69,21700,"52NARCSO","52nd St & Arch St - FS","Bus","No",0,NA,"No","APC (UTA)",NA,23,51,74,15,56,71,14,34,48,39.961404,-75.224696,"{7C3DF1C2-E5A9-4B00-96B5-5C83AB179C58}","2018"
12034,"5221701S","City","52","Southbound",71,21701,"52NCHESO","52nd St & Chestnut St","Bus","No",0,NA,"No","APC (UTA)",NA,284,165,450,173,97,271,90,57,148,39.958567,-75.225283,"{F8E86206-4727-4C92-BB87-00356B12F526}","2018"
12035,"5221702S","City","52","Southbound",72,21702,"52NWALSO","52nd St & Walnut St","Bus","No",0,NA,"No","APC (UTA)",NA,220,128,348,127,87,214,64,46,109,39.957059,-75.225571,"{A2D8DB9A-D6A8-40AC-A0A7-D93CF566E6B8}","2018"
12036,"5221703S","City","52","Southbound",73,21703,"52NLOCSO","52nd St & Locust St - FS","Bus","No",0,NA,"No","APC (UTA)",NA,40,56,96,27,27,54,11,14,26,39.955569,-75.225906,"{D8AD5A9E-67F6-43F8-909E-460689358006}","2018"
12037,"5221704S","City","52","Southbound",74,21704,"52NSPRSO","52nd St & Spruce St - FS","Bus","No",0,NA,"No","APC (UTA)",NA,146,171,317,87,99,186,55,60,116,39.954427,-75.226133,"{FBC20F47-4B9D-4DCE-8700-E4278031B58A}","2018"
12038,"5221705S","City","52","Southbound",75,21705,"52NPINSO","52nd St & Pine St","Bus","No",0,NA,"No","APC (UTA)",NA,48,99,147,23,32,55,18,27,45,39.953633,-75.226313,"{145BC544-6819-42C5-A4BD-F2E79E156825}","2018"
12039,"5221706S","City","52","Southbound",76,21706,"52NLARSO","52nd St & Larchwood St","Bus","No",0,NA,"No","APC (UTA)",NA,41,101,141,21,45,66,18,34,52,39.952098,-75.226612,"{D360E26D-2B39-48E5-8BC3-1E8A4F84F930}","2018"
12040,"5221707S","City","52","Southbound",77,21707,"52NCEDSO","52nd St & Cedar Av","Bus","No",0,NA,"No","APC (UTA)",NA,99,205,303,28,95,123,26,53,79,39.950564,-75.226936,"{99D89DA3-0212-4B59-980D-2103918B9AF1}","2018"
12041,"5221708S","City","52","Southbound",78,21708,"52NCATSO","52nd St & Catherine St - FS","Bus","No",0,NA,"No","APC (UTA)",NA,24,71,95,14,54,68,7,26,33,39.948797,-75.227318,"{0B18F810-E8E8-46BA-984B-4F83C2533FAB}","2018"
12042,"5221709S","City","52","Southbound",80,21709,"WHI53RSW","Whitby Av & 53rd St - FS","Bus","No",0,NA,"No","APC (UTA)",NA,10,21,30,4,12,16,2,7,9,39.946006,-75.228731,"{7A69CEFA-931C-4137-B626-2343221C027E}","2018"
12043,"5221710S","City","52","Southbound",81,21710,"54TWHISE","54th St & Whitby Av - FS","Bus","No",0,NA,"No","APC (UTA)",NA,46,165,212,23,102,125,20,66,87,39.945133,-75.229501,"{84CDF0C0-8ACE-4D32-8591-8E68256B113D}","2018"
12044,"5221711S","City","52","Southbound",82,21711,"54TWILSE","54th St & Willows Av","Bus","No",0,NA,"No","APC (UTA)",NA,46,156,202,20,92,112,15,54,69,39.944158,-75.228312,"{FAB95168-917D-4BCD-B5A8-44BA182C7C37}","2018"
12045,"5221712S","City","52","Southbound",83,21712,"54TFLOSE","54th St & Florence Av","Bus","No",0,NA,"No","APC (UTA)",NA,74,257,331,29,101,130,15,59,74,39.942969,-75.226945,"{58360D23-1ABE-4EB2-AC6D-C3894055AF4F}","2018"
12046,"5221713S","City","52","Southbound",84,21713,"54TWARSE","54th St & Warrington St","Bus","No",0,NA,"No","APC (UTA)",NA,76,204,280,19,90,109,11,52,63,39.941887,-75.225661,"{DB981380-9D39-47BF-A826-0967F83C557F}","2018"
12047,"5221714S","City","52","Southbound",85,21714,"54TSPRSE","54th St & Springfield Av","Bus","No",0,NA,"No","APC (UTA)",NA,29,114,143,10,59,68,11,45,56,39.940724,-75.224295,"{B7ADFB4B-F847-4EBE-8DA4-89F608672409}","2018"
12048,"5221715S","City","52","Southbound",88,21715,"54TKINSE","54th St & Kingsessing Av","Bus","No",0,NA,"No","APC (UTA)",NA,21,92,114,16,63,79,8,57,65,39.938659,-75.221798,"{F22F6726-76F5-4B75-9580-9925F9AD8A44}","2018"
12049,"5221716S","City","52","Southbound",89,21716,"GRE54TNE","Greenway Av & 54th St - FS","Bus","No",0,NA,"No","APC (UTA)",NA,28,289,318,10,168,178,6,127,133,39.937522,-75.220018,"{2EE4DC89-D25C-49ED-8A78-934053EBF280}","2018"
12050,"5221717S","City","52","Southbound",90,21717,"GRE53RNE","Greenway Av & 53rd St","Bus","No",0,NA,"No","APC (UTA)",NA,9,75,84,4,64,69,5,42,48,39.938306,-75.218883,"{4F61A11F-4BD9-4DC7-A86A-A7B2D93D9552}","2018"
12051,"5221718S","City","52","Southbound",91,21718,"GRE52NNE","Greenway Av & 52nd St","Bus","No",0,NA,"No","APC (UTA)",NA,10,85,95,5,64,69,3,46,49,39.939267,-75.21751,"{2D0925FD-4EB3-4A76-B055-652E462F02DB}","2018"
12052,"5221719S","City","52","Southbound",92,21719,"GRE51SNE","Greenway Av & 51st St","Bus","No",0,NA,"No","APC (UTA)",NA,8,60,68,3,31,34,1,27,28,39.940069,-75.216374,"{59BD88AC-EE41-47BD-95DB-1C6A47F33F46}","2018"
12053,"5221720S","City","52","Southbound",93,21720,"GRE50TNE","Greenway Av & 50th St","Bus","No",0,NA,"No","APC (UTA)",NA,19,58,77,10,38,48,25,22,48,39.940959,-75.215132,"{0E7D0281-C39B-4F86-A9F0-AB7166769B3A}","2018"
12054,"5221721N","City","52","Northbound",40,21721,"52NHESNE","52nd St & Heston St","Bus","No",0,NA,"No","APC (UTA)",NA,20,161,180,0,0,0,0,0,0,39.979772,-75.225069,"{3E82C823-EF6E-49EE-A3C6-6247FAC584AB}","2018"
12055,"5221722N","City","52","Northbound",41,21722,"52NPARNE","52nd St & Parkside Av","Bus","No",0,NA,"No","APC (UTA)",NA,1,10,12,0,0,0,0,0,0,39.98143,-75.224037,"{57D86851-AF93-40BA-BEB4-5EE494601DC6}","2018"
12056,"5221724N","City","52","Northbound",42,21724,"PAR51SSE","Parkside Av & 51st St","Bus","No",0,NA,"No","APC (UTA)",NA,11,158,169,0,0,0,0,0,0,39.980721,-75.221581,"{A4F92875-5D18-4ABE-AA45-2FD93D3E66ED}","2018"
12057,"5221725N","City","52","Northbound",43,21725,"PAR50TSE","Parkside Av & 50th St","Bus","Yes",0,"49PS","No","APC (UTA)",NA,6,55,61,0,0,0,0,0,0,39.979923,-75.219422,"{EA713165-42D1-4808-BA94-A65055D9F8E1}","2018"
12058,"5221727N","City","52","Northbound",6,21727,"54TWOONW","54th St & Woodland Av - FS","Bus","No",0,NA,"No","APC (UTA)",NA,330,50,381,216,26,241,152,14,166,39.93653,-75.219112,"{0707E4F3-B766-45E5-86B6-315FE4A06BE1}","2018"
12059,"5221728N","City","52","Northbound",7,21728,"54TGRENW","54th St & Greenway Av","Bus","No",0,NA,"No","APC (UTA)",NA,80,12,92,42,7,50,44,4,48,39.93738,-75.220113,"{93FAB959-BB1B-4250-9CB6-88D64039925C}","2018"
12060,"5221730N","City","52","Northbound",8,21730,"54TKISNW","54th St & Kingsessing Av - FS","Bus","No",0,NA,"No","APC (UTA)",NA,69,17,86,49,13,62,34,9,43,39.938739,-75.221727,"{BC5387A8-BDC4-4B30-A0CC-5244A3F1DBC7}","2018"
12061,"5221731N","City","52","Northbound",11,21731,"54TSPRNW","54th St & Springfield Av","Bus","No",0,NA,"No","APC (UTA)",NA,111,25,135,65,15,79,39,7,46,39.940697,-75.224035,"{7BFD9DC6-4AE0-4B0E-A19B-7D8E263FAA6D}","2018"
12062,"5221732N","City","52","Northbound",12,21732,"54TWARNW","54th St & Warrington Av","Bus","No",0,NA,"No","APC (UTA)",NA,201,88,288,72,20,92,59,20,79,39.94186,-75.225437,"{41992442-A4BD-44F2-AF06-BA2AEB1A6E97}","2018"
12063,"5221733N","City","52","Northbound",13,21733,"54TFLONW","54th St & Florence Av","Bus","No",0,NA,"No","APC (UTA)",NA,245,70,315,126,29,155,83,21,104,39.942951,-75.226685,"{A9A12610-FB8F-4A3C-9472-6498F9EC20F2}","2018"
12064,"5221734N","City","52","Northbound",14,21734,"54TWILNW","54th St & Willows Av","Bus","No",0,NA,"No","APC (UTA)",NA,177,48,225,103,29,132,78,25,102,39.94414,-75.228052,"{8E433C28-04D4-4C2C-8C5B-51FCDF34C3FA}","2018"
12065,"5221735N","City","52","Northbound",15,21735,"54TWHINW","54th St & Whitby Av","Bus","No",0,NA,"No","APC (UTA)",NA,212,57,270,120,32,153,73,23,97,39.945258,-75.229418,"{90C9CED8-C778-4E6A-A76E-8903CCD7D960}","2018"
12066,"5221736N","City","52","Northbound",16,21736,"WHI53RNE","Whitby Av & 53rd St","Bus","No",0,NA,"No","APC (UTA)",NA,15,24,39,3,10,13,3,6,8,39.94581,-75.228756,"{E9B966DB-DAC0-4191-9EA0-3A146A72FD09}","2018"
12067,"5221737N","City","52","Northbound",19,21737,"52NCATNO","52nd St & Catherine St - FS","Bus","No",0,NA,"No","APC (UTA)",NA,100,27,127,64,21,85,39,14,53,39.949118,-75.227081,"{16365C76-9916-4351-BDD3-ED4AB5652D50}","2018"
12068,"5221738N","City","52","Northbound",20,21738,"52NCEDNO","52nd St & Cedar Av - FS","Bus","No",0,NA,"No","APC (UTA)",NA,200,73,273,95,28,123,49,24,72,39.950626,-75.226746,"{A1189744-0DA4-45B9-9B9C-48AC7A170E65}","2018"
12069,"5221739N","City","52","Northbound",21,21739,"52NLARNO","52nd St & Larchwood Av","Bus","No",0,NA,"No","APC (UTA)",NA,123,36,159,57,24,81,37,13,49,39.951929,-75.226483,"{E33D33F9-7939-44CE-86CB-83047B82E27D}","2018"
12070,"5221740N","City","52","Northbound",22,21740,"52NPINNO","52nd St & Pine St - FS","Bus","No",0,NA,"No","APC (UTA)",NA,123,53,176,70,36,105,33,16,50,39.953695,-75.226124,"{EE983167-88DD-4832-8567-0B8D58F716A3}","2018"
12071,"5221741N","City","52","Northbound",23,21741,"52NSPRNO","52nd St & Spruce St - FS","Bus","Yes",0,"52SP","No","APC (UTA)",NA,220,100,320,135,55,190,81,45,125,39.954748,-75.225884,"{FF625930-83A2-40A8-B291-45F8C7D993D7}","2018"
12072,"5221742N","City","52","Northbound",24,21742,"52NLOCNO","52nd St & Locust St - FS","Bus","No",0,NA,"No","APC (UTA)",NA,47,27,74,22,17,39,19,5,24,39.955979,-75.225645,"{B1D0C853-A6FA-43ED-B080-8881CA75356C}","2018"
12073,"5221743N","City","52","Northbound",25,21743,"52NWALNO","52nd St & Walnut St","Bus","No",0,NA,"No","APC (UTA)",NA,187,118,305,121,93,214,73,39,113,39.956854,-75.225453,"{4DC9D85A-211B-4B31-A9BA-E27CD2E4D3D0}","2018"
12074,"5221744N","City","52","Northbound",28,21744,"52NARCNO","52nd St & Arch St - FS","Bus","No",0,NA,"No","APC (UTA)",NA,92,47,139,71,34,105,47,16,63,39.961725,-75.224459,"{1EC4D1D6-7CA5-4004-B284-16DCCC5D67AE}","2018"
12075,"5221745N","City","52","Northbound",29,21745,"52NRACNO","52nd St & Race St","Bus","No",0,NA,"No","APC (UTA)",NA,73,76,149,45,34,79,30,33,63,39.962992,-75.224196,"{FF5CB3BE-DD95-43AC-ABB2-3588F9FB5097}","2018"
12076,"5221746N","City","52","Northbound",31,21746,"52NPARNO","52nd St & Parrish St","Bus","No",0,NA,"No","APC (UTA)",NA,50,112,162,35,58,93,22,50,72,39.966536,-75.224812,"{8AB0BC2F-383C-406A-8B4C-308A02F257D4}","2018"
12077,"5221747N","City","52","Northbound",32,21747,"52NWESNO","52nd St & Westminster Av - FS","Bus","No",0,NA,"No","APC (UTA)",NA,70,164,234,45,98,143,39,81,120,39.968286,-75.225078,"{7068CEF2-D67A-47BB-BF57-A8B59D7EDE5C}","2018"
12078,"5221748N","City","52","Northbound",33,21748,"52NWYANO","52nd St & Wyalusing Av - FS","Bus","No",0,NA,"No","APC (UTA)",NA,40,80,120,30,41,72,17,28,45,39.969678,-75.225358,"{B752FB51-CAA1-4BA5-869B-DBA093D09B2C}","2018"
12079,"5221749N","City","52","Northbound",35,21749,"52NTHONO","52nd St & Thompson St - FS","Bus","No",0,NA,"No","APC (UTA)",NA,58,144,202,41,116,157,21,70,91,39.973116,-75.22608,"{862A2E91-630B-4D50-A699-79780DDB1C1F}","2018"
12080,"5221750N","City","52","Northbound",36,21750,"52NMASNO","52nd St & Master St - FS","Bus","No",0,NA,"No","APC (UTA)",NA,53,157,210,36,80,115,28,81,109,39.974401,-75.226301,"{549BD312-1845-4641-B87F-3CDF950D3D47}","2018"
12081,"5221751N","City","52","Northbound",37,21751,"52NWARNO","52nd St & Warren St - FS","Bus","No",0,NA,"No","APC (UTA)",NA,114,376,490,50,241,290,27,165,193,39.976455,-75.226673,"{51161A8A-6B1F-4AD6-9CC3-70553147BCE1}","2018"
12082,"5221752N","City","52","Northbound",38,21752,"52NLANNO","52nd St & Lancaster Av - FS","Bus","Yes",2331,"52LA","No","APC (UTA)",NA,87,175,262,43,131,174,29,65,94,39.977632,-75.226422,"{51CD58AF-D7CA-448F-8273-3A29D1FB23FA}","2018"
12083,"5221754S","City","52","Southbound",55,21754,"PAR51SNW","Parkside Av & 51st St","Bus","No",0,NA,"No","APC (UTA)",NA,28,4,32,0,0,0,0,0,0,39.980775,-75.221392,"{398D1AD7-A1CB-4C11-ABFC-53C4A0758E0B}","2018"
12084,"5221757S","City","52","Southbound",56,21757,"52NCOLSW","52nd St & Columbia Av","Bus","Yes",0,"52CO","No","APC (UTA)",NA,7,3,10,0,0,0,0,0,0,39.980566,-75.224748,"{30498BD7-B0C9-488F-A8D9-E8E6969E6C5F}","2018"
12085,"5221758N","City","52","Northbound",45,21758,"JEF52NNW","Jefferson St & 52nd St - FS","Bus","Yes",0,"JE52","No","APC (UTA)",NA,103,243,346,61,171,232,37,111,148,39.979577,-75.225554,"{81FCA4B3-E148-470F-B8F9-53E909FD029B}","2018"
12086,"5221759N","City","52","Northbound",46,21759,"JEFLINNW","Jefferson St & Lindenwood St","Bus","No",0,NA,"No","APC (UTA)",NA,10,21,31,5,22,27,4,18,22,39.980123,-75.227041,"{CAA3B233-218A-4525-B92C-47478ABAAC46}","2018"
12087,"5221760N","City","52","Northbound",48,21760,"54TOXFNW","54th St & Oxford St","Bus","No",0,NA,"No","APC (UTA)",NA,3,14,17,0,13,13,1,4,5,39.981467,-75.229967,"{607EB16C-6C91-4F4A-91C3-9899C83BD04B}","2018"
12088,"5221761N","City","52","Northbound",49,21761,"54TCOLNW","54th St & Columbia Av","Bus","No",0,NA,"No","APC (UTA)",NA,11,32,43,2,17,19,4,17,21,39.982414,-75.230602,"{551FBB2B-49DB-4EE6-A3BD-1EDC3EAFC660}","2018"
12089,"5221762N","City","52","Northbound",50,21762,"54TMONNW","54th St & Montgomery Av","Bus","No",0,NA,"No","APC (UTA)",NA,46,202,249,20,149,168,19,92,111,39.984003,-75.231165,"{B04CFBAD-DB77-4DC8-9E39-E13AA9F41F00}","2018"
12090,"5221763N","City","52","Northbound",51,21763,"54TBERNW","54th St & Berks St","Bus","No",0,NA,"No","APC (UTA)",NA,77,393,470,32,239,271,37,173,210,39.985789,-75.231774,"{222346D1-7A84-470D-86AE-E52B5308927E}","2018"
12091,"5221764N","City","52","Northbound",52,21764,"54TLEBNW","54th St & Lebanon Av","Bus","No",0,NA,"No","APC (UTA)",NA,39,132,171,20,97,118,14,49,63,39.987325,-75.232314,"{71077951-6E2E-4427-A884-A454E594049D}","2018"
12092,"5221765N","City","52","Northbound",53,21765,"54TGAINW","54th St & Gainor Rd","Bus","No",0,NA,"No","APC (UTA)",NA,20,79,99,6,57,63,6,48,54,39.988852,-75.232829,"{514AA1D2-03D4-49FA-9A34-60E36573A64B}","2018"
12093,"5221766N","City","52","Northbound",54,21766,"54TWODNW","54th St & Woodcrest Av - FS","Bus","No",0,NA,"No","APC (UTA)",NA,20,105,126,11,78,89,12,62,73,39.990826,-75.233462,"{E6F3420C-DEAE-4516-9D30-9F96CB289853}","2018"
12094,"5221768N","City","52","Northbound",58,21768,"54TOVENO","54th St & Overbrook Av","Bus","No",0,NA,"No","APC (UTA)",NA,1,4,5,0,0,0,0,0,0,39.994628,-75.233924,"{7410F5C6-6875-446B-8B18-1765B4C9F05B}","2018"
12095,"5221769N","City","52","Northbound",66,21769,"BALUNINW","Bala Av & Union Av","Bus","No",0,NA,"No","APC (UTA)",NA,0,1,2,0,0,0,0,0,0,40.003103,-75.231041,"{7F4ED206-7719-4825-ABC3-763BE13B797E}","2018"
12096,"5221770N","City","52","Northbound",68,21770,"BALMONNO","Bala Av & Montgomery Av","Bus","No",0,NA,"No","APC (UTA)",NA,0,2,3,0,0,0,0,0,0,40.006335,-75.232238,"{5A877E3E-6BD8-4107-8DAE-3536E308DAA1}","2018"
12097,"5221771N","City","52","Northbound",70,21771,"CONLODNW","Conshohocken State Rd & Lodges Ln","Bus","No",0,NA,"No","APC (UTA)",NA,0,0,0,0,0,0,0,0,0,40.010711,-75.233821,"{4B0C8F28-9A9D-45A8-97E0-7E9920F5E440}","2018"
12098,"5221773N","City","52","Northbound",72,21773,"CONLEVNW","Conshohocken State Rd & Levering","Bus","No",0,NA,"No","APC (UTA)",NA,0,2,2,0,0,0,0,0,0,40.013401,-75.235965,"{70DECADB-FC6E-496D-86A5-939FD5724BA1}","2018"
12099,"5221774N","City","52","Northbound",73,21774,"CONOVENW","Conshohocken State Rd & Overhill Rd","Bus","No",0,NA,"No","APC (UTA)",NA,0,1,2,0,0,0,0,0,0,40.015099,-75.237308,"{0B500DD1-CB03-4DA1-8E45-13E0A8307EAE}","2018"
12100,"5221776N","City","52","Northbound",74,21776,"CONDARNE","Conshohocken State Rd & Dartmouth","Bus","No",0,NA,"No","APC (UTA)",NA,0,2,2,0,0,0,0,0,0,40.016895,-75.238839,"{D53CAD34-E80A-4556-B74C-000744921323}","2018"
12101,"5221777N","City","52","Northbound",75,21777,"CONROCNW","Conshohocken State Rd & Rockhill Rd","Bus","No",0,NA,"No","APC (UTA)",NA,0,5,5,0,0,0,0,0,0,40.018245,-75.240041,"{BC3B6505-7094-4E26-8138-4D2443660511}","2018"
12102,"5221779N","City","52","Northbound",77,21779,"CONCENNW","Conshohocken State Rd & Centennial","Bus","No",0,NA,"No","APC (UTA)",NA,0,1,1,0,0,0,0,0,0,40.023318,-75.255147,"{D7EB4EE2-4741-49AE-862E-9ACFE9F6143F}","2018"
12103,"5221780N","City","52","Northbound",78,21780,"CONHAGNO","Conshohocken St & Hagys Ford Rd","Bus","No",0,NA,"No","APC (UTA)",NA,0,1,1,0,0,0,0,0,0,40.025348,-75.257565,"{D630758A-BA9E-4A2A-9297-9360C116821D}","2018"
12104,"5221791N","City","52","Northbound",81,21791,"HAGFL1NW","Hagys Ford Rd & Flat Rock Rd - MBNS","Bus","No",0,NA,"No","APC (UTA)",NA,0,0,1,0,0,0,0,0,0,40.029179,-75.252839,"{029862CE-0DCD-4694-8069-51524063BCC4}","2018"
12105,"5221793N","City","52","Northbound",82,21793,"HAGFL2NW","Hagys Ford Rd & Flat Rock Rd","Bus","No",0,NA,"No","APC (UTA)",NA,0,4,4,0,0,0,0,0,0,40.030198,-75.254066,"{9A744362-D68C-4B7B-9EB2-C9E8B3936461}","2018"
12106,"5221796N","City","52","Northbound",84,21796,"HAGHOLNW","Hagys Ford Rd & Hollow Rd","Bus","No",0,NA,"No","APC (UTA)",NA,0,0,0,0,0,0,0,0,0,40.034185,-75.258679,"{B6FADBC2-25CC-465C-AECA-615CC54F56BB}","2018"
12107,"5221799N","City","52","Northbound",97,21799,"CONMAPNW","Conshohocken State Rd & Maplecrest","Bus","No",0,NA,"No","APC (UTA)",NA,0,1,1,0,0,0,0,0,0,40.037065,-75.277612,"{71B28DD9-4D20-4B20-A73A-8FC738E5F40A}","2018"
12108,"5222217S","City","52","Southbound",47,22217,"54TMONSO","54th St & Montgomery Av","Bus","No",0,NA,"No","APC (UTA)",NA,180,45,225,130,27,157,81,19,101,39.984155,-75.231365,"{C3B85C86-FE24-4EF3-8BC0-73F0F05785AF}","2018"
12109,"5222218S","City","52","Southbound",52,22218,"JEF52NSE","Jefferson St & 52nd St","Bus","Yes",0,"JE52","No","APC (UTA)",NA,296,94,390,214,74,288,139,42,180,39.979443,-75.225507,"{7197899C-6EEF-40DF-9FD8-E82C7D7E59D1}","2018"
12110,"5222290N","City","52","Northbound",47,22290,"JEF53RNW","Jefferson St & 53rd St","Bus","No",0,NA,"No","APC (UTA)",NA,22,33,55,9,19,27,5,8,13,39.980455,-75.227997,"{A3709948-9C79-44AC-AC3E-8772CD19F958}","2018"
12111,"5225520N","City","52","Northbound",17,25520,"WHI52NNE","Whitby Av & 52nd St - MBNS","Bus","No",0,NA,"No","APC (UTA)",NA,5,7,12,2,3,5,3,6,9,39.946727,-75.227454,"{BD6245B1-60A7-4BA3-B74D-2476450B37F3}","2018"
12112,"5225982S","City","52","Southbound",50,25982,"JEF53RSE","Jefferson St & 53rd St","Bus","No",0,NA,"No","APC (UTA)",NA,25,12,36,23,9,32,7,2,9,39.980438,-75.228269,"{0C64C6F2-93CE-4A81-9218-810CF600E1F7}","2018"
12113,"5229556S","City","52","Southbound",20,29556,"HAGTOWSW","Hagys Ford Rd & Tower Ln - MBNS","Bus","No",0,NA,"No","APC (UTA)",NA,0,0,0,0,0,0,0,0,0,40.027511,-75.25347,"{52CDEDD7-C608-4762-AC86-47CE4BF08F78}","2018"
12114,"5229557S","City","52","Southbound",21,29557,"HAGTOESW","Hagys Ford Rd & Tower Ln","Bus","No",0,NA,"No","APC (UTA)",NA,1,0,1,0,0,0,0,0,0,40.026568,-75.255706,"{F7089695-213F-4506-91BC-52C938546B67}","2018"
12115,"5229558S","City","52","Southbound",19,29558,"HAGFLTSE","Hagys Ford Rd & Flat Rock Rd - MBFS","Bus","No",0,NA,"No","APC (UTA)",NA,0,0,0,0,0,0,0,0,0,40.029152,-75.253016,"{CBE49340-DB2E-4C6C-9174-5A67668FDA0E}","2018"
12116,"5229559S","City","52","Southbound",25,29559,"CONMANEA","Conshohocken State Rd & Manayunk Rd - FS","Bus","No",0,NA,"No","APC (UTA)",NA,0,0,1,0,0,0,0,0,0,40.018796,-75.244401,"{2FE62EFA-6A2B-47E0-8F37-0C70648E75A1}","2018"
12117,"5229560S","City","52","Southbound",28,29560,"CONDARSE","Conshohocken & Dartmouth - FS","Bus","No",0,NA,"No","APC (UTA)",NA,0,0,0,0,0,0,0,0,0,40.016726,-75.238875,"{FE61D200-2F6D-401D-98E8-DCC1B95F3712}","2018"
12118,"5229561S","City","52","Southbound",27,29561,"CONROCSO","Conshohocken State Rd & Rockhill Rd","Bus","No",0,NA,"No","APC (UTA)",NA,1,0,1,0,0,0,0,0,0,40.017441,-75.239594,"{02DD390A-C2C3-4F73-9368-DB1DE7307F92}","2018"
12119,"5229562S","City","52","Southbound",31,29562,"CONDERSE","Conshohocken State Rd & Derwen Rd","Bus","No",0,NA,"No","APC (UTA)",NA,0,0,0,0,0,0,0,0,0,40.012383,-75.235353,"{6C94088E-5C01-46E8-B632-C3F46C2F270E}","2018"
12120,"5229563S","City","52","Southbound",29,29563,"CONOVESE","Conshohocken State Rd & Overhill Rd","Bus","No",0,NA,"No","APC (UTA)",NA,0,0,0,0,0,0,0,0,0,40.015171,-75.237544,"{B4A785B2-67C1-4110-B9F8-A6A404AF2D8E}","2018"
12121,"5229565S","City","52","Southbound",34,29565,"BALMONSO","Bala Av & Montgomery Av","Bus","No",0,NA,"No","APC (UTA)",NA,0,0,0,0,0,0,0,0,0,40.00647,-75.232462,"{9BF06D80-2947-4B7C-96AC-104427D98725}","2018"
12122,"5229566S","City","52","Southbound",35,29566,"BALHIGSO","Bala Av & Highland Av","Bus","No",0,NA,"No","APC (UTA)",NA,0,0,0,0,0,0,0,0,0,40.005104,-75.232206,"{2AD7996D-AAAC-4FA8-9CE7-02213E4B1C94}","2018"
12123,"5229567N","City","52","Northbound",67,29567,"BALHIGNO","Bala Av & Highland Av","Bus","No",0,NA,"No","APC (UTA)",NA,0,0,0,0,0,0,0,0,0,40.004996,-75.232052,"{D4A5E514-1525-4CFC-9AEF-818D54E7B4E2}","2018"
12124,"5229568N","City","52","Northbound",69,29568,"CONBAANO","Conshohocken State Rd & Bala Av","Bus","No",0,NA,"No","APC (UTA)",NA,0,0,0,0,0,0,0,0,0,40.007452,-75.232613,"{E77C45EC-4819-4E42-94A9-F3141C6C6BA8}","2018"
12125,"5229569N","City","52","Northbound",80,29569,"HAGTOENE","Hagys Ford Rd & Tower Ln - MBFS","Bus","No",0,NA,"No","APC (UTA)",NA,0,0,0,0,0,0,0,0,0,40.027395,-75.253434,"{E4A546C9-4824-4919-B257-F35F371969DC}","2018"
12126,"5229570N","City","52","Northbound",86,29570,"HABBOANO","Hagys Ford Rd & Bobarn Rd - MBFS","Bus","No",0,NA,"No","APC (UTA)",NA,0,0,0,0,0,0,0,0,0,40.036274,-75.25943,"{3750B6D7-9A96-4718-A2AB-8E323BC43D3D}","2018"
12127,"5229570S","City","52","Southbound",7,29570,"HABBOANO","Hagys Ford Rd & Bobarn Rd - MBFS","Bus","No",0,NA,"No","APC (UTA)",NA,0,0,0,0,0,0,0,0,0,40.036274,-75.25943,"{BC422F10-FB32-49A0-A031-8F9A11834238}","2018"
12128,"5229571N","City","52","Northbound",87,29571,"HAGCHEEA","Hagys Ford Rd & Chermar Ln","Bus","No",0,NA,"No","APC (UTA)",NA,0,0,0,0,0,0,0,0,0,40.038023,-75.258539,"{C499A8D8-6F30-4A55-9FF5-37BA4CB8CC73}","2018"
12129,"5229571S","City","52","Southbound",8,29571,"HAGCHEEA","Hagys Ford Rd & Chermar Ln","Bus","No",0,NA,"No","APC (UTA)",NA,0,0,0,0,0,0,0,0,0,40.038023,-75.258539,"{9CEC16BF-88A8-4230-8B11-457E75B288F8}","2018"
12130,"5229572N","City","52","Northbound",88,29572,"OAKOAKEA","Oakwood Dr & Oakwood Ter - FS","Bus","No",0,NA,"No","APC (UTA)",NA,1,3,3,0,0,0,0,0,0,40.038869,-75.257485,"{562F8041-E855-4025-87B2-C37FF7E9F2F7}","2018"
12131,"5229572S","City","52","Southbound",9,29572,"OAKOAKEA","Oakwood Dr & Oakwood Ter - FS","Bus","No",0,NA,"No","APC (UTA)",NA,1,0,1,0,0,0,0,0,0,40.038869,-75.257485,"{A9CFF298-C7CE-4DED-8B1A-2F9959BC3872}","2018"
12132,"5229573N","City","52","Northbound",92,29573,"OAKOAKWE","Oakwood Dr & Oakwood Ter","Bus","No",0,NA,"No","APC (UTA)",NA,0,0,0,0,0,0,0,0,0,40.038994,-75.257508,"{BFA30883-0C85-4A8D-8730-0F9E253BF5BD}","2018"
12133,"5229573S","City","52","Southbound",13,29573,"OAKOAKWE","Oakwood Dr & Oakwood Ter","Bus","No",0,NA,"No","APC (UTA)",NA,1,0,1,0,0,0,0,0,0,40.038994,-75.257508,"{35494AAB-6FB9-4C01-BF19-A62F469B3129}","2018"
12134,"5229574N","City","52","Northbound",93,29574,"HAGCHEWE","Hagys Ford Rd & Chermar Ln - FS","Bus","No",0,NA,"No","APC (UTA)",NA,0,0,0,0,0,0,0,0,0,40.03813,-75.258681,"{1D5D2A73-063B-48DF-AD76-A61F7568A827}","2018"
12135,"5229574S","City","52","Southbound",14,29574,"HAGCHEWE","Hagys Ford Rd & Chermar Ln - FS","Bus","No",0,NA,"No","APC (UTA)",NA,0,0,0,0,0,0,0,0,0,40.03813,-75.258681,"{ECA175DB-CFE8-4A77-BEE6-E9144C4CDC86}","2018"
12136,"5229575N","City","52","Northbound",94,29575,"HAGBOASE","Hagys Ford Rd & Bobarn Dr - MBNS","Bus","No",0,NA,"No","APC (UTA)",NA,0,0,0,0,0,0,0,0,0,40.036257,-75.259596,"{11D154A6-1B99-40A6-929B-8AFEEA5EACDB}","2018"
12137,"5229575S","City","52","Southbound",15,29575,"HAGBOASE","Hagys Ford Rd & Bobarn Dr - MBNS","Bus","No",0,NA,"No","APC (UTA)",NA,0,0,0,0,0,0,0,0,0,40.036257,-75.259596,"{45F31FBD-0DFE-4154-8B5E-B272D0C5B524}","2018"
12138,"5230129N","City","52","Northbound",65,30129,"BALCITNW","Bala Av & City Av - FS","Bus","Yes",423,"BCAV","No","APC (UTA)",NA,9,9,18,0,0,0,0,0,0,40.000466,-75.22891,"{596CF372-B140-49A1-B4E7-7A76CB7AC239}","2018"
12139,"5230130N","City","52","Northbound",71,30130,"COSDERNW","Conshohocken State Rd & Derwin Rd","Bus","No",0,NA,"No","APC (UTA)",NA,0,0,0,0,0,0,0,0,0,40.012311,-75.235117,"{B469548E-1325-44FB-BA0B-0FD3C961B675}","2018"
12140,"5230131N","City","52","Northbound",79,30131,"HAGTOWNE","Hagys Ford Rd & Tower Ln - FS","Bus","No",0,NA,"No","APC (UTA)",NA,0,0,0,0,0,0,0,0,0,40.026514,-75.255505,"{DF34A1CF-706D-41A2-84FC-25EF8F4B441F}","2018"
12141,"5230132N","City","52","Northbound",83,30132,"HAGFL3SW","Hagys Ford Rd & Flat Rock Rd - MBFS","Bus","No",0,NA,"No","APC (UTA)",NA,0,0,0,0,0,0,0,0,0,40.032049,-75.256449,"{F6ADE82A-8095-450D-A450-2DEA7D88113C}","2018"
12142,"5230134N","City","52","Northbound",91,30134,"OAKOAWSW","Oakwood Dr & Oakwood Ter - MBNS","Bus","No",0,NA,"No","APC (UTA)",NA,0,0,0,0,0,0,0,0,0,40.039528,-75.256159,"{7AC61DFA-DAB9-4EE1-B106-F3602AA3B0AA}","2018"
12143,"5230134S","City","52","Southbound",12,30134,"OAKOAWSW","Oakwood Dr & Oakwood Ter - MBNS","Bus","No",0,NA,"No","APC (UTA)",NA,0,0,0,0,0,0,0,0,0,40.039528,-75.256159,"{73FA3A2B-6F36-46CA-BB59-A5172545237F}","2018"
12144,"5230135N","City","52","Northbound",89,30135,"OAKOAWNE","Oakwood Ter & Oakwood Dr - MBFS","Bus","No",0,NA,"No","APC (UTA)",NA,0,1,1,0,0,0,0,0,0,40.039501,-75.255994,"{446EAEAF-824D-449B-97BE-B8A9A6038F79}","2018"
12145,"5230135S","City","52","Southbound",10,30135,"OAKOAWNE","Oakwood Ter & Oakwood Dr - MBFS","Bus","No",0,NA,"No","APC (UTA)",NA,0,0,0,0,0,0,0,0,0,40.039501,-75.255994,"{32F81A41-8CD8-4385-89DD-BB985AFD35E5}","2018"
12146,"5230136N","City","52","Northbound",98,30136,"YOURIGSW","Youngs Ford Rd & Righters Mill Rd","Bus","Yes",676,"GLWY","No","APC (UTA)",NA,0,26,26,0,0,0,0,0,0,40.038024,-75.280247,"{8FCE4844-07BF-410D-B3FD-A6D0A671AA2E}","2018"
12147,"5230136S","City","52","Southbound",1,30136,"YOURIGSW","Youngs Ford Rd & Righters Mill Rd","Bus","Yes",676,"GLWY","No","APC (UTA)",NA,16,0,16,0,0,0,0,0,0,40.038024,-75.280247,"{ECE3B426-EADE-4453-8C09-8999AE97CE7F}","2018"
12148,"5230137S","City","52","Southbound",4,30137,"CONMILSE","Conshohocken State Rd & Mill Creek","Bus","No",0,NA,"No","APC (UTA)",NA,0,0,0,0,0,0,0,0,0,40.031307,-75.269408,"{486B57E4-F2DE-46AA-90EA-DB0858D92BCD}","2018"
12149,"5230138N","City","52","Northbound",60,30138,"54TCITSO","54th St & City Av - MBFS","Bus","Yes",1,"54CL","No","APC (UTA)",NA,0,146,146,0,162,162,0,102,102,39.995986,-75.23457,"{EF95AD61-A395-415C-8AF9-CA6D0816661D}","2018"
12150,"5230138S","City","52","Southbound",40,30138,"54TCITSO","54th St & City Av - MBFS","Bus","Yes",1,"54CL","No","APC (UTA)",NA,504,4,508,375,0,375,258,0,258,39.995986,-75.23457,"{C60013BD-2745-4819-AC5C-C0E1ABEFFD62}","2018"
12151,"5230185S","City","52","Southbound",94,30185,"GRE49TNE","Greenway Av & 49th St","Bus","Yes",0,"49GR","No","APC (UTA)",NA,9,110,119,5,51,56,3,47,51,39.941832,-75.21389,"{F6A63967-45CA-4BFB-B2AC-81A94582F4D4}","2018"
12152,"5230223N","City","52","Northbound",90,30223,"OAKLOONO","Oak Hill Apartments Loop","Bus","Yes",677,"OHAP","No","APC (UTA)",NA,0,3,3,0,0,0,0,0,0,40.040856,-75.254867,"{188B7B80-AAA2-4140-A5C7-FED7F1A5986E}","2018"
12153,"5230223S","City","52","Southbound",11,30223,"OAKLOONO","Oak Hill Apartments Loop","Bus","Yes",677,"OHAP","No","APC (UTA)",NA,1,0,1,0,0,0,0,0,0,40.040856,-75.254867,"{F4DD4FEB-B39E-438D-95EC-2418A8EAEABA}","2018"
12154,"5230771N","City","52","Northbound",44,30771,"PARLOOSO","50th & Parkside Loop","Bus","Yes",397,"PKLO","No","APC (UTA)",NA,0,65,65,0,0,0,0,0,0,39.978201,-75.219687,"{FC6A4540-149B-4FBD-8FEA-81ACC6B2B0F0}","2018"
12155,"5230771S","City","52","Southbound",53,30771,"PARLOOSO","50th & Parkside Loop","Bus","Yes",397,"PKLO","No","APC (UTA)",NA,61,0,61,0,0,0,0,0,0,39.978201,-75.219687,"{C6405AE1-8CF1-42DF-8AB0-C1F9D4369FF8}","2018"
12156,"5230844S","City","52","Southbound",54,30844,"50TPARNO","50th St & Parkside Av","Bus","No",0,NA,"No","APC (UTA)",NA,10,1,11,0,0,0,0,0,0,39.979825,-75.219328,"{9873B349-AA48-479D-B4C0-0E4DFCC82807}","2018"
12157,"5231039N","City","52","Northbound",39,31039,"PARWESWE","Parkwest Town Center","Bus","Yes",2094,"PAWE","No","APC (UTA)",NA,112,289,401,104,273,378,53,126,179,39.978715,-75.222733,"{6810B266-701A-4CFC-9A5F-E822C3606F02}","2018"
12158,"5231039S","City","52","Southbound",58,31039,"PARWESWE","Parkwest Town Center","Bus","Yes",2094,"PAWE","No","APC (UTA)",NA,233,77,310,173,49,222,83,18,101,39.978715,-75.222733,"{3414A300-4DF4-4F15-BE70-6C3539D224C4}","2018"
12159,"5231210N","City","52","Northbound",96,31210,"HOLCONSW","Hollow Rd & Conshohocken State Rd","Bus","No",0,NA,"No","APC (UTA)",NA,0,0,0,0,0,0,0,0,0,40.031183,-75.263001,"{7C498A7B-6C5B-4D7E-B898-6EF13F8DF64E}","2018"
12160,"5231270S","City","52","Southbound",57,31270,"52NJEFSO","52nd St & Jefferson St","Bus","No",0,NA,"No","APC (UTA)",NA,56,7,62,0,0,0,0,0,0,39.979594,-75.225341,"{BBD32EE7-7042-41FA-83D4-016DBEAD83C6}","2018"
12161,"5231283S","City","52","Southbound",39,31283,"CITMAPSW","City Av & Maple Av","Bus","No",0,NA,"No","APC (UTA)",NA,0,1,1,0,0,0,0,0,0,39.998153,-75.233158,"{65483D3E-5D6F-4ABD-87AF-D0D3E6C762B6}","2018"
12162,"5231449N","City","52","Northbound",76,31449,"CONMARNW","Conshohocken State Rd & Mary Waters Ford Rd","Bus","No",0,NA,"No","APC (UTA)",NA,0,2,2,0,0,0,0,0,0,40.020618,-75.245732,"{CE1FEB6C-F5A9-46CA-9BCB-3D0AD8251E1C}","2018"
12163,"5231450S","City","52","Southbound",24,31450,"CONMARSE","Conshohocken State Rd & Mary Waters Ford Rd","Bus","No",0,NA,"No","APC (UTA)",NA,1,0,2,0,0,0,0,0,0,40.020627,-75.245922,"{D434E63C-59B0-495B-9445-901BB8BF87F1}","2018"
12164,"5231610N","City","52","Northbound",55,31610,"CARCITNO","Cardinal Av & City Av","Bus","No",0,NA,"No","APC (UTA)",NA,12,96,108,4,41,45,4,34,37,39.994024,-75.241441,"{EC933421-CA47-4ABD-A6DF-88AEB9AD74E5}","2018"
12165,"5231630N","City","52","Northbound",57,31630,"54TWOONO","54th St & Woodbine Av - FS","Bus","No",0,NA,"No","APC (UTA)",NA,0,2,2,0,0,0,0,0,0,39.992343,-75.233647,"{DD6E49B7-4FB4-4A97-BBB7-9AD78A16BB22}","2018"
12166,"52317N","City","52","Northbound",2,317,"WOO50TSW","Woodland Av & 50th St","Bus","Yes",0,"50WO","No","APC (UTA)",NA,474,104,578,325,87,412,227,58,285,39.940064,-75.213848,"{697E6298-30B8-4EDF-AD77-83F05D06B3F0}","2018"
12167,"523574N","City","52","Northbound",26,3574,"52NCHENO","52nd St & Chestnut St","Bus","No",0,NA,"No","APC (UTA)",NA,240,220,460,168,133,302,103,72,175,39.958361,-75.225154,"{1C1739EF-0E0C-4237-A23A-66BFF243F3FF}","2018"
12263,"526232N","City","52","Northbound",64,6232,"CITBRYNE","City Av & Bryn Mawr Av","Bus","No",0,NA,"No","APC (UTA)",NA,1,5,6,0,0,0,0,0,0,39.999024,-75.231017,"{57FC7840-9788-42D3-B132-9DD98AD7ACED}","2018"
12264,"526239N","City","52","Northbound",62,6239,"CIT53RNE","City Av & 53rd St","Bus","Yes",2296,NA,"No","APC (UTA)",NA,1,9,9,0,0,0,0,0,0,39.997449,-75.234365,"{6D896365-A515-483B-B8D2-CA316959A73E}","2018"
12266,"52698S","City","52","Southbound",37,698,"BALCITSO","Bala Av & City Av","Bus","Yes",423,"BCAV","No","APC (UTA)",NA,3,6,10,0,0,0,0,0,0,40.000243,-75.22891,"{3413739C-5EF7-4E1F-A5F6-4D973B2495CD}","2018"
12267,"52767S","City","52","Southbound",63,767,"52NGIRSO","52nd St & Girard Av - FS","Bus","Yes",0,"52GI","No","APC (UTA)",NA,447,149,596,293,95,388,198,66,263,39.971241,-75.225873,"{380EED2B-5304-4B1C-BDFB-325F51F278E5}","2018"
12268,"52768S","City","52","Southbound",67,768,"52NHAVSO","52nd St & Haverford Av - FS","Bus","Yes",335,"52HA","No","APC (UTA)",NA,207,95,302,123,64,188,74,37,112,39.964697,-75.224651,"{10DF01AF-59C3-44B5-9FB7-882D64C899E5}","2018"
12269,"52769S","City","52","Southbound",70,769,"52NMARSO","52nd St & Market St","Bus","Yes",467,"52MA","No","APC (UTA)",NA,1254,1631,2885,602,890,1493,408,642,1050,39.9602,-75.224948,"{FAB310FF-D204-437D-BDE0-A5A1A9450B82}","2018"
12270,"52771S","City","52","Southbound",79,771,"52NBALSO","52nd St & Baltimore Av","Bus","Yes",468,"52BA","No","APC (UTA)",NA,188,338,526,96,210,306,57,130,187,39.94787,-75.227498,"{39DDE8C2-FC90-4A00-83D2-6372B04316ED}","2018"
12271,"52776S","City","52","Southbound",86,776,"54TCHESE","54th St & Chester Av","Bus","No",0,NA,"No","APC (UTA)",NA,86,320,406,35,249,284,21,159,180,39.939696,-75.223058,"{6F8633CC-B3AF-4715-AF37-708469DEFE47}","2018"
12272,"52777N","City","52","Northbound",18,777,"52NBALNW","52nd St & Baltimore Av","Bus","Yes",468,"52BA","No","APC (UTA)",NA,341,139,481,225,80,305,114,37,151,39.947709,-75.227262,"{11AB8C2B-9E64-44B7-B172-2341BD7B7F68}","2018"
12273,"52779N","City","52","Northbound",27,779,"52NMARNO","52nd St & Market St","Bus","Yes",467,"52MA","No","APC (UTA)",NA,1693,1410,3103,987,767,1754,722,543,1265,39.959825,-75.224878,"{89092392-AF4D-4ADF-BD09-F1767332231E}","2018"
12274,"52780N","City","52","Northbound",30,780,"52NHAVNO","52nd St & Haverford Av - FS","Bus","Yes",335,"52HA","No","APC (UTA)",NA,126,219,344,73,127,200,48,76,124,39.965197,-75.224591,"{5DC88334-FA1D-4021-B39C-253EECFEEB17}","2018"
12275,"52781N","City","52","Northbound",34,781,"52NGIRNO","52nd St & Girard Av","Bus","Yes",0,"52GI","No","APC (UTA)",NA,188,428,617,113,262,375,75,214,289,39.971339,-75.225743,"{370362E1-5AE3-4588-BDBF-7414142F2C3E}","2018"
