"OBJECTID","GIS_DB_ID","Sign_Up","Route","Direction","Sequence","Stop_ID","Stop_Abbre","Stop_Name","Mode","Time_Point","Time_Poi_1","Time_Poi_2","School","Source","Comments","Weekday_Bo","Weekday_Le","Saturday_B","Saturday_L","Sunday_Boa","Sunday_Lea","Latitude","Longitude","GlobalID","year"
21994,"5221720S","City","52","Southbound",93,21720,"GRE50TNE","Greenway Av & 50th St","Bus","No",0,NA,"No","APC (InfoDev)",NA,2,43,2,27,0,24,39.940959,-75.215132,"{50101E0E-6E45-4825-B01E-010AB7D4F65F}","2019"
18218,"5221748N","City","52","Northbound",33,21748,"52NWYANO","52nd St & Wyalusing Av - FS","Bus","No",0,NA,"No","APC (InfoDev)",NA,49,109,26,54,23,50,39.969678,-75.225358,"{810B3A37-83EE-4E23-9AF6-0163D85D93CA}","2019"
8010,"5230129N","City","52","Northbound",65,30129,"BALCITNW","Bala Av & City Av - FS","Bus","Yes",423,"BCAV","No","APC (InfoDev)",NA,3,8,0,0,0,0,40.000466,-75.22891,"{F348AF60-5D2C-455F-A4F5-01B4A01168B5}","2019"
6414,"5229575S","City","52","Southbound",15,29575,"HAGBOASE","Hagys Ford Rd & Bobarn Dr - MBNS","Bus","No",0,NA,"No","APC (InfoDev)",NA,0,0,0,0,0,0,40.036257,-75.259596,"{DE9A8ACE-86C7-41DC-81CA-038ABF6BC726}","2019"
12401,"5221732N","City","52","Northbound",12,21732,"54TWARNW","54th St & Warrington Av","Bus","No",0,NA,"No","APC (InfoDev)",NA,206,84,83,13,69,14,39.94186,-75.225437,"{9CC77A79-3600-4EA1-9E83-04AD50EC01A3}","2019"
14382,"5225982S","City","52","Southbound",50,25982,"JEF53RSE","Jefferson St & 53rd St","Bus","No",0,NA,"No","APC (InfoDev)",NA,57,12,22,11,12,5,39.980438,-75.228269,"{362B582C-8D67-4671-96F9-05E6CFDC6754}","2019"
16534,"5221736N","City","52","Northbound",16,21736,"WHI53RNE","Whitby Av & 53rd St","Bus","No",0,NA,"No","APC (InfoDev)",NA,120,44,65,28,31,8,39.94581,-75.228756,"{4951474A-927B-487E-92E0-07236E10ED79}","2019"
20351,"5221686S","City","52","Southbound",44,21686,"54TGAISO","54th St & Gainor Rd","Bus","No",0,NA,"No","APC (InfoDev)",NA,70,14,37,2,29,1,39.988995,-75.23303,"{B0C1B6FF-8092-4C6B-A0DD-07BD0A3A8F83}","2019"
21905,"5221678S","City","52","Southbound",30,21678,"CONLEVSE","Conshohocken State Rd & LeveringMil","Bus","No",0,NA,"No","APC (InfoDev)",NA,0,0,0,0,0,0,40.013473,-75.236201,"{18324621-C8A4-4995-AE2E-07CF5CF09726}","2019"
8572,"5229573N","City","52","Northbound",92,29573,"OAKOAKWE","Oakwood Dr & Oakwood Ter","Bus","No",0,NA,"No","APC (InfoDev)",NA,0,1,0,0,0,0,40.038994,-75.257508,"{2E28C4D7-0D17-4289-A9CC-0C1C06EA992C}","2019"
2192,"5221761N","City","52","Northbound",49,21761,"54TCOLNW","54th St & Columbia Av","Bus","No",0,NA,"No","APC (InfoDev)",NA,11,64,11,31,7,34,39.982414,-75.230602,"{C8ECCB60-EFBC-4224-A4F2-0E19C24F4254}","2019"
4952,"5220592N","City","52","Northbound",63,20592,"CIT52NNE","City Av & 52nd St","Bus","No",0,NA,"No","APC (InfoDev)",NA,1,5,0,0,0,0,39.997965,-75.233289,"{488CF80E-8491-4A6D-8176-0E238FE31A00}","2019"
8602,"5229568N","City","52","Northbound",69,29568,"CONBAANO","Conshohocken State Rd & Bala Av","Bus","No",0,NA,"No","APC (InfoDev)",NA,0,0,0,0,0,0,40.007452,-75.232613,"{9082E11B-BA62-4BA6-8C51-13491ADCF524}","2019"
4096,"5221702S","City","52","Southbound",72,21702,"52NWALSO","52nd St & Walnut St","Bus","No",0,NA,"No","APC (InfoDev)",NA,267,266,154,142,92,101,39.957059,-75.225571,"{E214DBD1-8B99-4D0B-A15D-155DD998C031}","2019"
7821,"5221257N","City","52","Northbound",10,21257,"54TCHENW","54th St & Chester Av","Bus","Yes",0,"54CH","No","APC (InfoDev)",NA,401,51,264,41,179,22,39.93958,-75.222775,"{5DCDE3C8-6C9B-42C2-AE40-16EDAC2297CD}","2019"
14876,"5221740N","City","52","Northbound",22,21740,"52NPINNO","52nd St & Pine St - FS","Bus","No",0,NA,"No","APC (InfoDev)",NA,151,55,62,31,44,21,39.953695,-75.226124,"{F0C8077F-029B-4DCA-BB76-171FED7701D8}","2019"
2698,"5221760N","City","52","Northbound",48,21760,"54TOXFNW","54th St & Oxford St","Bus","No",0,NA,"No","APC (InfoDev)",NA,12,28,6,19,5,19,39.981467,-75.229967,"{FB07B808-912D-41F2-9F7D-178BBBA3DF6F}","2019"
7974,"5221731N","City","52","Northbound",11,21731,"54TSPRNW","54th St & Springfield Av","Bus","No",0,NA,"No","APC (InfoDev)",NA,138,20,62,13,56,13,39.940697,-75.224035,"{171CF41D-F4FC-4E4D-B605-17DADE61F74C}","2019"
20153,"526232N","City","52","Northbound",64,6232,"CITBRYNE","City Av & Bryn Mawr Av","Bus","No",0,NA,"No","APC (InfoDev)",NA,2,4,0,0,0,0,39.999024,-75.231017,"{AB576DE1-7233-4F91-83FE-1842110B3EA2}","2019"
8365,"5229572N","City","52","Northbound",88,29572,"OAKOAKEA","Oakwood Dr & Oakwood Ter - FS","Bus","No",0,NA,"No","APC (InfoDev)",NA,0,0,0,0,0,0,40.038869,-75.257485,"{1702A94A-5F17-4995-ADE0-185C59EEFB12}","2019"
14428,"5221796N","City","52","Northbound",84,21796,"HAGHOLNW","Hagys Ford Rd & Hollow Rd","Bus","No",0,NA,"No","APC (InfoDev)",NA,0,1,0,0,0,0,40.034185,-75.258679,"{15085BE4-5FBE-4569-8109-1B966DDB88A5}","2019"
5540,"5221791N","City","52","Northbound",81,21791,"HAGFL1NW","Hagys Ford Rd & Flat Rock Rd - MBNS","Bus","No",0,NA,"No","APC (InfoDev)",NA,0,1,0,0,0,0,40.029179,-75.252839,"{DCE9B6B1-311D-494A-AB68-1BF92B5A42C3}","2019"
9448,"5230137S","City","52","Southbound",4,30137,"CONMILSE","Conshohocken State Rd & Mill Creek","Bus","No",0,NA,"No","APC (InfoDev)",NA,1,0,0,0,0,0,40.031307,-75.269408,"{EFDF4B50-622B-4441-8BDC-1D431EF99467}","2019"
21650,"5221769N","City","52","Northbound",66,21769,"BALUNINW","Bala Av & Union Av","Bus","No",0,NA,"No","APC (InfoDev)",NA,0,1,0,0,0,0,40.003103,-75.231041,"{5947EF43-AF42-42C3-835B-1FB67FF644EF}","2019"
10552,"5229569N","City","52","Northbound",80,29569,"HAGTOENE","Hagys Ford Rd & Tower Ln - MBFS","Bus","No",0,NA,"No","APC (InfoDev)",NA,0,0,0,0,0,0,40.027395,-75.253434,"{7F0FAF17-C3F5-467B-BBC4-20F7CFCD2951}","2019"
9539,"5230134S","City","52","Southbound",12,30134,"OAKOAWSW","Oakwood Dr & Oakwood Ter - MBNS","Bus","No",0,NA,"No","APC (InfoDev)",NA,1,0,0,0,0,0,40.039528,-75.256159,"{7357DC65-01A3-421B-99A2-261ED1598CBE}","2019"
16488,"5221257S","City","52","Southbound",87,21257,"54TCHENW","54th St & Chester Av","Bus","Yes",472,"54CH","No","APC (InfoDev)",NA,0,124,0,0,0,0,39.93958,-75.222775,"{2CE7BEF8-78EE-4EBC-A5E1-27119C11B5C9}","2019"
12001,"5221689S","City","52","Southbound",48,21689,"54TUPLSO","54th St & Upland Way","Bus","No",0,NA,"No","APC (InfoDev)",NA,65,9,50,8,41,7,39.982575,-75.230826,"{F5D05DF3-E8AD-4040-8022-2746771E5ECB}","2019"
13111,"5221739N","City","52","Northbound",21,21739,"52NLARNO","52nd St & Larchwood Av","Bus","No",0,NA,"No","APC (InfoDev)",NA,130,44,64,19,38,15,39.951929,-75.226483,"{6797D499-80A4-4AE5-B18B-2869DEC6F357}","2019"
7376,"5231039S","City","52","Southbound",58,31039,"PARWESWE","Parkwest Town Center","Bus","Yes",2094,"PAWE","No","APC (InfoDev)",NA,275,51,167,32,92,24,39.978715,-75.222733,"{427E0A90-70C7-4088-8F17-2BA04266E6E6}","2019"
8773,"5221725N","City","52","Northbound",43,21725,"PAR50TSE","Parkside Av & 50th St","Bus","Yes",0,"49PS","No","APC (InfoDev)",NA,3,46,0,0,0,0,39.979923,-75.219422,"{7366FD9B-F7D1-444C-B911-2C6EBBAA0425}","2019"
9473,"5221703S","City","52","Southbound",73,21703,"52NLOCSO","52nd St & Locust St - FS","Bus","No",0,NA,"No","APC (InfoDev)",NA,97,151,41,73,41,56,39.955569,-75.225906,"{B8AC1AC8-F572-4BAE-A422-2CB720EA19D7}","2019"
3077,"5221735N","City","52","Northbound",15,21735,"54TWHINW","54th St & Whitby Av","Bus","No",0,NA,"No","APC (InfoDev)",NA,121,27,75,19,79,16,39.945258,-75.229418,"{A6F2E841-992D-4CF7-832E-2E855691F8EE}","2019"
13064,"5221658S","City","52","Southbound",6,21658,"HAGBOBNW","Hagys Ford Rd & Bobarn Rd - FS","Bus","No",0,NA,"No","APC (InfoDev)",NA,0,0,0,0,0,0,40.035042,-75.259079,"{8C0D3669-3A1D-4155-AB51-2EEC092E7519}","2019"
4132,"5221744N","City","52","Northbound",28,21744,"52NARCNO","52nd St & Arch St - FS","Bus","No",0,NA,"No","APC (InfoDev)",NA,224,150,99,62,95,77,39.961725,-75.224459,"{D43E81B9-70AE-423E-934D-31D2DABA8145}","2019"
1777,"5231630N","City","52","Northbound",57,31630,"54TWOONO","54th St & Woodbine Av - FS","Bus","No",0,NA,"No","APC (InfoDev)",NA,2,3,0,0,0,0,39.992343,-75.233647,"{B6F6467A-540F-46CE-9B2B-32085BFB99AA}","2019"
9056,"5221741N","City","52","Northbound",23,21741,"52NSPRNO","52nd St & Spruce St - FS","Bus","Yes",0,"52SP","No","APC (InfoDev)",NA,231,106,120,61,71,43,39.954748,-75.225884,"{5A9FAF49-F241-45A3-BFBE-321CEFD842F2}","2019"
8530,"5220741N","City","52","Northbound",3,20741,"WOO51SSW","Woodland Av & 51st St","Bus","No",0,NA,"No","APC (InfoDev)",NA,75,6,51,1,25,3,39.939192,-75.215102,"{83E384A3-95CD-41B6-B8FF-32D7685E9258}","2019"
18771,"5220591N","City","52","Northbound",56,20591,"CIT54HNE","City Av & 54th St","Bus","Yes",0,"54CLE","No","APC (InfoDev)",NA,8,279,11,220,4,140,39.996969,-75.235383,"{01CEFF89-E541-404E-9AB0-34FA49739D12}","2019"
2829,"5221742N","City","52","Northbound",24,21742,"52NLOCNO","52nd St & Locust St - FS","Bus","No",0,NA,"No","APC (InfoDev)",NA,94,70,71,47,42,27,39.955979,-75.225645,"{C20F633F-421A-4489-B96F-354CB4F8B2D7}","2019"
7251,"5221724N","City","52","Northbound",42,21724,"PAR51SSE","Parkside Av & 51st St","Bus","No",0,NA,"No","APC (InfoDev)",NA,1,108,0,0,0,0,39.980721,-75.221581,"{238DF774-5100-42C0-A6A0-391B38D5BCA8}","2019"
15642,"5221765N","City","52","Northbound",53,21765,"54TGAINW","54th St & Gainor Rd","Bus","No",0,NA,"No","APC (InfoDev)",NA,16,99,6,52,1,38,39.988852,-75.232829,"{CC4A68AF-A7B5-4DD8-A980-393AD9A3430F}","2019"
13669,"5221256N","City","52","Northbound",1,21256,"49TWOOSE","49th St & Woodland Av","Bus","Yes",187,"49WO","No","APC (InfoDev)",NA,98,0,59,0,50,0,39.940866,-75.212759,"{1A0348B4-4F7A-4CDC-977C-398D3694184E}","2019"
13506,"5230185S","City","52","Southbound",94,30185,"GRE49TNE","Greenway Av & 49th St","Bus","Yes",0,"49GR","No","APC (InfoDev)",NA,3,57,2,33,1,23,39.941832,-75.21389,"{BD4D631E-04CC-48C3-9955-39E09E8172F4}","2019"
4765,"5221734N","City","52","Northbound",14,21734,"54TWILNW","54th St & Willows Av","Bus","No",0,NA,"No","APC (InfoDev)",NA,175,50,92,18,65,14,39.94414,-75.228052,"{A8DD2644-DDE0-45F2-A94F-3A442045846B}","2019"
20323,"5230771S","City","52","Southbound",53,30771,"PARLOOSO","50th & Parkside Loop","Bus","Yes",397,"PKLO","No","APC (InfoDev)",NA,39,0,0,0,0,0,39.978201,-75.219687,"{894A176D-4A36-47D0-9B3B-3B31ADABC365}","2019"
2240,"5221763N","City","52","Northbound",51,21763,"54TBERNW","54th St & Berks St","Bus","No",0,NA,"No","APC (InfoDev)",NA,40,268,29,140,7,95,39.985789,-75.231774,"{33FAB155-FAE0-4F32-AB2B-3DCC3A61E03C}","2019"
2121,"5221717S","City","52","Southbound",90,21717,"GRE53RNE","Greenway Av & 53rd St","Bus","No",0,NA,"No","APC (InfoDev)",NA,9,68,3,47,2,33,39.938306,-75.218883,"{EC57A4AD-88D7-47D5-A3D9-3DF188054D5A}","2019"
3078,"5230135S","City","52","Southbound",10,30135,"OAKOAWNE","Oakwood Ter & Oakwood Dr - MBFS","Bus","No",0,NA,"No","APC (InfoDev)",NA,0,0,0,0,0,0,40.039501,-75.255994,"{D14A6917-A968-4569-9CF8-3DF6E47597FF}","2019"
3053,"5221677S","City","52","Southbound",26,21677,"CONROCSE","Conshohocken State Rd & RockHill Rd","Bus","No",0,NA,"No","APC (InfoDev)",NA,1,0,0,0,0,0,40.018254,-75.24029,"{72F65078-7050-4005-90FF-41B0458AD451}","2019"
10660,"5221737N","City","52","Northbound",19,21737,"52NCATNO","52nd St & Catherine St - FS","Bus","No",0,NA,"No","APC (InfoDev)",NA,90,41,46,9,40,12,39.949118,-75.227081,"{F924A621-ADD7-4EAA-95E8-45B33D6F5FF5}","2019"
12959,"5230136N","City","52","Northbound",98,30136,"YOURIGSW","Youngs Ford Rd & Righters Mill Rd","Bus","Yes",676,"GLWY","No","APC (InfoDev)",NA,1,7,0,0,0,0,40.038024,-75.280247,"{141A448A-7A22-4B09-935D-462536AAB0E6}","2019"
6322,"5221716S","City","52","Southbound",89,21716,"GRE54TNE","Greenway Av & 54th St - FS","Bus","No",0,NA,"No","APC (InfoDev)",NA,13,229,7,148,6,108,39.937522,-75.220018,"{A7A6C30B-7553-40FF-987A-480ECB2A3DE2}","2019"
13900,"5229571S","City","52","Southbound",8,29571,"HAGCHEEA","Hagys Ford Rd & Chermar Ln","Bus","No",0,NA,"No","APC (InfoDev)",NA,0,0,0,0,0,0,40.038023,-75.258539,"{513D8BE5-469E-46C4-80D1-4886138F7BBA}","2019"
6838,"5221684S","City","52","Southbound",42,21684,"54TWOOSO","54th St & Woodbine Av","Bus","No",0,NA,"No","APC (InfoDev)",NA,45,1,28,0,23,2,39.992335,-75.233789,"{E24ABD96-B37C-4394-AC2B-48C47BE38EEC}","2019"
6377,"5229571N","City","52","Northbound",87,29571,"HAGCHEEA","Hagys Ford Rd & Chermar Ln","Bus","No",0,NA,"No","APC (InfoDev)",NA,0,0,0,0,0,0,40.038023,-75.258539,"{6CAC9078-A9FC-44BF-8B03-4BC187E4411F}","2019"
16199,"5221715S","City","52","Southbound",88,21715,"54TKINSE","54th St & Kingsessing Av","Bus","No",0,NA,"No","APC (InfoDev)",NA,18,113,5,58,6,58,39.938659,-75.221798,"{BE3E6EE6-A644-41E4-85C8-4C0CF33174CB}","2019"
21920,"5221752N","City","52","Northbound",38,21752,"52NLANNO","52nd St & Lancaster Av - FS","Bus","Yes",2331,"52LA","No","APC (InfoDev)",NA,93,193,52,113,26,90,39.977632,-75.226422,"{7E1C1BBF-3F31-4F85-9C6C-4E132EF90259}","2019"
21885,"52779N","City","52","Northbound",27,779,"52NMARNO","52nd St & Market St - north","Bus","Yes",467,"52MA","No","APC (InfoDev)",NA,1475,1137,843,635,504,388,39.959825,-75.224878,"{16097872-AB6E-4546-A1D0-5124154FD805}","2019"
21886,"5221749N","City","52","Northbound",35,21749,"52NTHONO","52nd St & Thompson St - FS","Bus","No",0,NA,"No","APC (InfoDev)",NA,63,175,40,110,23,80,39.973116,-75.22608,"{32DC7D2F-1DC9-4456-BDB2-51B0E6C3777F}","2019"
9906,"52317N","City","52","Northbound",2,317,"WOO50TSW","Woodland Av & 50th St","Bus","Yes",0,"50WO","No","APC (InfoDev)",NA,363,32,220,24,153,14,39.940064,-75.213848,"{03314953-3E9B-4AF0-BCFC-537E96C3A12C}","2019"
21194,"5229574N","City","52","Northbound",93,29574,"HAGCHEWE","Hagys Ford Rd & Chermar Ln - FS","Bus","No",0,NA,"No","APC (InfoDev)",NA,0,0,0,0,0,0,40.03813,-75.258681,"{B8113EB2-8CC2-4E2E-AA25-53C2211D690F}","2019"
5925,"5221673S","City","52","Southbound",23,21673,"CONCENSE","Conshohocken St & Centennial Rd","Bus","No",0,NA,"No","APC (InfoDev)",NA,0,0,0,0,0,0,40.023489,-75.256068,"{80DCE351-18A7-4D18-9153-54548B402F62}","2019"
16194,"5221709S","City","52","Southbound",80,21709,"WHI53RSW","Whitby Av & 53rd St - FS","Bus","No",0,NA,"No","APC (InfoDev)",NA,17,56,10,28,6,26,39.946006,-75.228731,"{22A4F252-5733-4A1E-A2F2-54FF2A1708E0}","2019"
1337,"5229572S","City","52","Southbound",9,29572,"OAKOAKEA","Oakwood Dr & Oakwood Ter - FS","Bus","No",0,NA,"No","APC (InfoDev)",NA,0,0,0,0,0,0,40.038869,-75.257485,"{5254A447-D653-496E-B94A-559EA51EBAAB}","2019"
15202,"5230132N","City","52","Northbound",83,30132,"HAGFL3SW","Hagys Ford Rd & Flat Rock Rd - MBFS","Bus","No",0,NA,"No","APC (InfoDev)",NA,0,1,0,0,0,0,40.032049,-75.256449,"{ACDC46FE-45DF-4C51-BD59-5B31504E9F7D}","2019"
14217,"5229565S","City","52","Southbound",34,29565,"BALMONSO","Bala Av & Montgomery Av","Bus","No",0,NA,"No","APC (InfoDev)",NA,2,0,0,0,0,0,40.00647,-75.232462,"{A29849EA-46DD-4428-BAC0-5BA1B1396AD0}","2019"
21151,"5221679S","City","52","Southbound",32,21679,"CONLODSE","Conshohocken State Rd & Lodges Ln","Bus","No",0,NA,"No","APC (InfoDev)",NA,0,0,0,0,0,0,40.010756,-75.234081,"{031FA41C-96F4-4981-8266-5BDEE4AE92F1}","2019"
18781,"5221721N","City","52","Northbound",40,21721,"52NHESNE","52nd St & Heston St","Bus","No",0,NA,"No","APC (InfoDev)",NA,10,144,0,0,0,0,39.979772,-75.225069,"{17230073-C6D8-415D-A7FA-5CC3C054CFDB}","2019"
8844,"5230135N","City","52","Northbound",89,30135,"OAKOAWNE","Oakwood Ter & Oakwood Dr - MBFS","Bus","No",0,NA,"No","APC (InfoDev)",NA,0,2,0,0,0,0,40.039501,-75.255994,"{1255AD5A-3075-4EA8-86D5-5D19C0115EA6}","2019"
12925,"52768S","City","52","Southbound",67,768,"52NHAVSO","52nd St & Haverford Av - FS","Bus","Yes",335,"52HA","No","APC (InfoDev)",NA,232,110,129,78,82,55,39.964697,-75.224651,"{4C71D2F6-C40E-49DD-8690-5FB663BE1822}","2019"
4241,"5221692S","City","52","Southbound",59,21692,"52NLANSO","52nd St & Lancaster Av - FS","Bus","Yes",2331,"52LA","No","APC (InfoDev)",NA,358,119,198,60,121,26,39.977017,-75.22692,"{802F2217-DAB3-4B65-AF94-60A84CE563CA}","2019"
11657,"5225520N","City","52","Northbound",17,25520,"WHI52NNE","Whitby Av & 52nd St - MBNS","Bus","No",0,NA,"No","APC (InfoDev)",NA,54,28,16,13,27,11,39.946727,-75.227454,"{E22B90B7-5AAF-4B74-B393-632738134606}","2019"
18156,"5221799N","City","52","Northbound",97,21799,"CONMAPNW","Conshohocken State Rd & Maplecrest","Bus","No",0,NA,"No","APC (InfoDev)",NA,1,1,0,0,0,0,40.037065,-75.277612,"{95A8EFA1-9B1E-4AEB-A436-65D07C50439E}","2019"
10952,"5221719S","City","52","Southbound",92,21719,"GRE51SNE","Greenway Av & 51st St","Bus","No",0,NA,"No","APC (InfoDev)",NA,3,52,0,29,0,26,39.940069,-75.216374,"{FC814906-60C9-4039-87B0-6690D1709F4F}","2019"
13368,"5221750N","City","52","Northbound",36,21750,"52NMASNO","52nd St & Master St - FS","Bus","No",0,NA,"No","APC (InfoDev)",NA,56,228,33,132,31,92,39.974401,-75.226301,"{9C3A8E90-3E3A-46DF-B9EB-69B76191DE9E}","2019"
9216,"5221668S","City","52","Southbound",18,21668,"HAGFLASE","Hagys Ford Rd & Flat Rock Rd","Bus","No",0,NA,"No","APC (InfoDev)",NA,2,0,0,0,0,0,40.030234,-75.254361,"{CBED12C4-5E2E-4794-A323-69C98F826991}","2019"
18608,"5221667S","City","52","Southbound",17,21667,"HAGTOWSE","Hagys Ford Rd & Tower Ln - MBFS","Bus","No",0,NA,"No","APC (InfoDev)",NA,0,0,0,0,0,0,40.032514,-75.257288,"{5FA47571-5211-4846-959E-69DB8E90D958}","2019"
18195,"5221774N","City","52","Northbound",73,21774,"CONOVENW","Conshohocken State Rd & Overhill Rd","Bus","No",0,NA,"No","APC (InfoDev)",NA,0,0,0,0,0,0,40.015099,-75.237308,"{98E3A733-3D5F-4CA9-9568-6A0AAA321038}","2019"
873,"5229561S","City","52","Southbound",27,29561,"CONROCSO","Conshohocken State Rd & Rockhill Rd","Bus","No",0,NA,"No","APC (InfoDev)",NA,0,0,0,0,0,0,40.017441,-75.239594,"{170D9E68-4FC7-403B-9272-6A2DB3FA170B}","2019"
15483,"5220561S","City","52","Southbound",38,20561,"CITBRYSW","City Av & Bryn Mawr Av","Bus","No",0,NA,"No","APC (InfoDev)",NA,4,1,0,0,0,0,39.99922,-75.230851,"{0A294DE5-067F-4AD6-B1D6-6A9901557944}","2019"
7819,"5222218S","City","52","Southbound",52,22218,"JEF52NSE","Jefferson St & 52nd St","Bus","Yes",0,"JE52","No","APC (InfoDev)",NA,276,79,192,56,142,34,39.979443,-75.225507,"{1E405A36-F539-47DC-92A7-6B72D80579F0}","2019"
2883,"5221696S","City","52","Southbound",64,21696,"52NWYASO","52nd St & Wyalusing Av - FS","Bus","No",0,NA,"No","APC (InfoDev)",NA,142,44,73,29,64,12,39.969313,-75.22543,"{363AE19B-9A8B-4F36-9A9E-6C86ACBB0EA4}","2019"
11739,"526239N","City","52","Northbound",62,6239,"CIT53RNE","City Av & 53rd St","Bus","Yes",2296,NA,"No","APC (InfoDev)",NA,2,31,3,3,2,1,39.997449,-75.234365,"{7DA59DD6-7EA3-4297-996B-6D4F51C93F73}","2019"
19872,"5229558S","City","52","Southbound",19,29558,"HAGFLTSE","Hagys Ford Rd & Flat Rock Rd - MBFS","Bus","No",0,NA,"No","APC (InfoDev)",NA,0,0,0,0,0,0,40.029152,-75.253016,"{9F70947A-20BD-458C-931E-6D7AABBE1FD9}","2019"
10928,"5229570S","City","52","Southbound",7,29570,"HABBOANO","Hagys Ford Rd & Bobarn Rd - MBFS","Bus","No",0,NA,"No","APC (InfoDev)",NA,0,0,0,0,0,0,40.036274,-75.25943,"{EA18D5FE-9F54-459A-941E-6DBB975BBFE0}","2019"
21480,"5221699S","City","52","Southbound",68,21699,"52NRACSO","52nd St & Race St","Bus","No",0,NA,"No","APC (InfoDev)",NA,95,71,51,36,38,30,39.963153,-75.224325,"{63BB1FA3-F317-40DF-92F2-6FF7540535AC}","2019"
13848,"5230138N","City","52","Northbound",60,30138,"54TCITSO","54th St & City Av - MBFS","Bus","Yes",1,"54CL","No","APC (InfoDev)",NA,16,90,23,64,3,62,39.995986,-75.23457,"{BCE70ADD-C989-4A3C-8D88-6FFF68750883}","2019"
4766,"5221758N","City","52","Northbound",45,21758,"JEF52NNW","Jefferson St & 52nd St - FS","Bus","Yes",0,"JE52","No","APC (InfoDev)",NA,87,284,32,206,40,160,39.979577,-75.225554,"{7FBB1233-1225-4A0A-B547-70B8144CBA1E}","2019"
2748,"5221663N","City","52","Northbound",95,21663,"HAGBOBSE","Hagys Ford Rd & Bobarn Dr","Bus","No",0,NA,"No","APC (InfoDev)",NA,0,0,0,0,0,0,40.034927,-75.259268,"{F64CD2B5-5654-4F5A-B45F-72EED999B79E}","2019"
12569,"5221694S","City","52","Southbound",61,21694,"52NMASSO","52nd St & Master St - FS","Bus","No",0,NA,"No","APC (InfoDev)",NA,184,50,115,22,75,21,39.974107,-75.22642,"{33B54B51-5318-459F-9B73-733745BF0D13}","2019"
206,"5221669S","City","52","Southbound",22,21669,"CONHAGSE","Conshohocken & Hagys Ford Rd - FS","Bus","No",0,NA,"No","APC (InfoDev)",NA,0,0,0,0,0,0,40.025241,-75.257683,"{B5198F11-AC58-4574-AABC-734A9047D82D}","2019"
4119,"5221759N","City","52","Northbound",46,21759,"JEFLINNW","Jefferson St & Lindenwood St","Bus","No",0,NA,"No","APC (InfoDev)",NA,15,44,8,40,6,37,39.980123,-75.227041,"{FD5EB1CF-B322-4235-BE48-74481D36B53E}","2019"
15315,"5229570N","City","52","Northbound",86,29570,"HABBOANO","Hagys Ford Rd & Bobarn Rd - MBFS","Bus","No",0,NA,"No","APC (InfoDev)",NA,0,0,0,0,0,0,40.036274,-75.25943,"{1AF52481-DB88-4ACD-8E67-76165D1AD4D4}","2019"
20856,"5221754S","City","52","Southbound",55,21754,"PAR51SNW","Parkside Av & 51st St","Bus","No",0,NA,"No","APC (InfoDev)",NA,21,0,0,0,0,0,39.980775,-75.221392,"{6CEFA54B-0620-4C5C-A61F-76FC8439F2F8}","2019"
16191,"5229575N","City","52","Northbound",94,29575,"HAGBOASE","Hagys Ford Rd & Bobarn Dr - MBNS","Bus","No",0,NA,"No","APC (InfoDev)",NA,0,0,0,0,0,0,40.036257,-75.259596,"{8AD9A7A9-473B-41BC-9295-773EF9FBC797}","2019"
1795,"52781N","City","52","Northbound",34,781,"52NGIRNO","52nd St & Girard Av","Bus","Yes",0,"52GI","No","APC (InfoDev)",NA,139,454,94,294,69,178,39.971339,-75.225743,"{4AA23A4D-89F2-4416-8352-79B4582E3C24}","2019"
18843,"5231039N","City","52","Northbound",39,31039,"PARWESWE","Parkwest Town Center","Bus","Yes",2094,"PAWE","No","APC (InfoDev)",NA,98,278,69,208,39,111,39.978715,-75.222733,"{50DC1DC6-C697-4C12-89F8-7A0BEC228CCD}","2019"
20023,"5230771N","City","52","Northbound",44,30771,"PARLOOSO","50th & Parkside Loop","Bus","Yes",397,"PKLO","No","APC (InfoDev)",NA,6,41,0,0,0,0,39.978201,-75.219687,"{6C3625B9-CC60-467C-B652-7A38D6F5F9E2}","2019"
1651,"5221711S","City","52","Southbound",82,21711,"54TWILSE","54th St & Willows Av","Bus","No",0,NA,"No","APC (InfoDev)",NA,31,142,16,86,11,56,39.944158,-75.228312,"{8969234A-7B53-436C-AC0C-7A7E374EDAF9}","2019"
1222,"52777N","City","52","Northbound",18,777,"52NBALNW","52nd St & Baltimore Av","Bus","Yes",468,"52BA","No","APC (InfoDev)",NA,295,103,188,62,104,33,39.947709,-75.227262,"{E9A74ED1-D8F7-47F2-BD25-7C552DF5890B}","2019"
16071,"5221780N","City","52","Northbound",78,21780,"CONHAGNO","Conshohocken St & Hagys Ford Rd","Bus","No",0,NA,"No","APC (InfoDev)",NA,1,1,0,0,0,0,40.025348,-75.257565,"{76DE959D-40D9-4B35-9EBE-7D02CF356248}","2019"
4019,"5221658N","City","52","Northbound",85,21658,"HAGBOBNW","Hagys Ford Rd & Bobarn Rd - FS","Bus","No",0,NA,"No","APC (InfoDev)",NA,0,0,0,0,0,0,40.035042,-75.259079,"{20A284DA-1C72-4B17-B4AE-7E6234AC0341}","2019"
4900,"5221680S","City","52","Southbound",33,21680,"CONBALSO","Conshohocken State Rd & Bala Av","Bus","No",0,NA,"No","APC (InfoDev)",NA,0,0,0,0,0,0,40.007532,-75.232802,"{B1E88C80-F33B-4428-B2EE-7F71028311E7}","2019"
15312,"5221653S","City","52","Southbound",3,21653,"CONMAPSE","Conshohocken State Rd & Maplecrest","Bus","No",0,NA,"No","APC (InfoDev)",NA,0,0,0,0,0,0,40.037164,-75.277908,"{C42E4E15-EA9A-4133-8F3C-8071B385A09E}","2019"
1566,"5221770N","City","52","Northbound",68,21770,"BALMONNO","Bala Av & Montgomery Av","Bus","No",0,NA,"No","APC (InfoDev)",NA,3,1,0,0,0,0,40.006335,-75.232238,"{036BA961-F31B-4812-B2FB-807F442DC2A5}","2019"
11588,"5221695S","City","52","Southbound",62,21695,"52NTHOSO","52nd St & Thompson St - FS","Bus","No",0,NA,"No","APC (InfoDev)",NA,155,52,77,28,60,19,39.97275,-75.226176,"{D8B7B5EF-1E0F-4443-8D56-8151329F14A0}","2019"
16515,"5221687S","City","52","Southbound",45,21687,"54TLEBSO","54th St & Lebanon Av","Bus","No",0,NA,"No","APC (InfoDev)",NA,106,43,55,17,42,8,39.987468,-75.232514,"{4EB52C7B-AE26-4D29-8B2E-82088A740ABA}","2019"
20664,"5221733N","City","52","Northbound",13,21733,"54TFLONW","54th St & Florence Av","Bus","No",0,NA,"No","APC (InfoDev)",NA,235,51,106,33,84,18,39.942951,-75.226685,"{2F4FBAE8-1935-4512-AB6B-83D4CB12C804}","2019"
21347,"5229574S","City","52","Southbound",14,29574,"HAGCHEWE","Hagys Ford Rd & Chermar Ln - FS","Bus","No",0,NA,"No","APC (InfoDev)",NA,0,0,0,0,0,0,40.03813,-75.258681,"{3F5800A3-E298-4470-83E9-890D1616FE33}","2019"
21586,"5221718S","City","52","Southbound",91,21718,"GRE52NNE","Greenway Av & 52nd St","Bus","No",0,NA,"No","APC (InfoDev)",NA,9,89,5,58,4,50,39.939267,-75.21751,"{E7A97006-ACD8-4502-A4B5-8AF7CDBFFA51}","2019"
14075,"5231210N","City","52","Northbound",96,31210,"HOLCONSW","Hollow Rd & Conshohocken State Rd","Bus","No",0,NA,"No","APC (InfoDev)",NA,0,0,0,0,0,0,40.031183,-75.263001,"{A7C1EAC5-2969-49F4-A8AA-8B08FF7487C2}","2019"
21808,"5221777N","City","52","Northbound",75,21777,"CONROCNW","Conshohocken State Rd & Rockhill Rd","Bus","No",0,NA,"No","APC (InfoDev)",NA,0,3,0,0,0,0,40.018245,-75.240041,"{6D441B08-7E5C-46F7-9AFA-8B8871DD6FA7}","2019"
20102,"5229559S","City","52","Southbound",25,29559,"CONMANEA","Conshohocken State Rd & Manayunk Rd - FS","Bus","No",0,NA,"No","APC (InfoDev)",NA,2,0,0,0,0,0,40.018796,-75.244401,"{530A6A62-4969-4B3B-81D9-8ED421A27CCD}","2019"
15729,"5221663S","City","52","Southbound",16,21663,"HAGBOBSE","Hagys Ford Rd & Bobarn Dr","Bus","No",0,NA,"No","APC (InfoDev)",NA,0,0,0,0,0,0,40.034927,-75.259268,"{0CDB524E-7D55-4B34-A3D2-90771DAA03AE}","2019"
2682,"5221764N","City","52","Northbound",52,21764,"54TLEBNW","54th St & Lebanon Av","Bus","No",0,NA,"No","APC (InfoDev)",NA,31,144,7,68,9,58,39.987325,-75.232314,"{E61EA0C3-FECB-4E9E-A43F-933229FC099B}","2019"
6942,"5221768N","City","52","Northbound",58,21768,"54TOVENO","54th St & Overbrook Av","Bus","No",0,NA,"No","APC (InfoDev)",NA,2,5,0,0,0,0,39.994628,-75.233924,"{7342DA3E-36E8-4377-958D-94120D7ECFA3}","2019"
10009,"52767S","City","52","Southbound",63,767,"52NGIRSO","52nd St & Girard Av - FS","Bus","Yes",0,"52GI","No","APC (InfoDev)",NA,441,134,294,85,177,60,39.971241,-75.225873,"{FF5AEA6F-3794-4069-9C67-945A22A2EA70}","2019"
21522,"5221745N","City","52","Northbound",29,21745,"52NRACNO","52nd St & Race St","Bus","No",0,NA,"No","APC (InfoDev)",NA,191,192,80,96,92,84,39.962992,-75.224196,"{7CADD5E9-D858-4E9B-BD47-94B51021C7B8}","2019"
6519,"52698S","City","52","Southbound",37,698,"BALCITSO","Bala Av & City Av","Bus","Yes",423,"BCAV","No","APC (InfoDev)",NA,1,7,0,0,0,0,40.000243,-75.22891,"{9C8FEDAE-0878-4337-A94D-94DE00CE61CC}","2019"
12587,"5221738N","City","52","Northbound",20,21738,"52NCEDNO","52nd St & Cedar Av - FS","Bus","No",0,NA,"No","APC (InfoDev)",NA,199,73,87,26,57,20,39.950626,-75.226746,"{16892DAA-6382-41DF-A411-9865A44AE406}","2019"
830,"5231270S","City","52","Southbound",57,31270,"52NJEFSO","52nd St & Jefferson St","Bus","No",0,NA,"No","APC (InfoDev)",NA,58,3,0,0,0,0,39.979594,-75.225341,"{6DC90A17-851D-42D2-84F1-9AB0B4A39E07}","2019"
14425,"5221779N","City","52","Northbound",77,21779,"CONCENNW","Conshohocken State Rd & Centennial","Bus","No",0,NA,"No","APC (InfoDev)",NA,0,2,0,0,0,0,40.023318,-75.255147,"{2FB2C7EA-B291-4D64-B186-9B04159A9075}","2019"
4887,"5221728N","City","52","Northbound",7,21728,"54TGRENW","54th St & Greenway Av","Bus","No",0,NA,"No","APC (InfoDev)",NA,98,10,47,4,39,0,39.93738,-75.220113,"{B1AEC843-8BB1-4DE1-AF7E-9B43CEEB7EED}","2019"
13351,"5229560S","City","52","Southbound",28,29560,"CONDARSE","Conshohocken & Dartmouth - FS","Bus","No",0,NA,"No","APC (InfoDev)",NA,0,0,0,0,0,0,40.016726,-75.238875,"{54A98755-3AAA-4BC7-97F9-9D6AC487BCDD}","2019"
15700,"5221751N","City","52","Northbound",37,21751,"52NWARNO","52nd St & Warren St - FS","Bus","No",0,NA,"No","APC (InfoDev)",NA,79,301,18,133,17,93,39.976455,-75.226673,"{FE85C5C2-C172-4618-8C06-9E99E5BB8D6C}","2019"
13969,"5230130N","City","52","Northbound",71,30130,"COSDERNW","Conshohocken State Rd & Derwin Rd","Bus","No",0,NA,"No","APC (InfoDev)",NA,1,0,0,0,0,0,40.012311,-75.235117,"{82075A75-2625-4454-A05D-9EE1E4230A2E}","2019"
18028,"5221697S","City","52","Southbound",65,21697,"52NWESSO","52nd St & Westminster Av - FS","Bus","No",0,NA,"No","APC (InfoDev)",NA,183,62,103,27,75,23,39.967929,-75.225186,"{A7DF2C39-4447-4E51-A8D4-9F7636A8A384}","2019"
21213,"5231283S","City","52","Southbound",39,31283,"CITMAPSW","City Av & Maple Av","Bus","No",0,NA,"No","APC (InfoDev)",NA,0,1,0,0,0,0,39.998153,-75.233158,"{AE79175C-8D2C-4E36-98DB-9FBDAA4F2F21}","2019"
16525,"5221656S","City","52","Southbound",5,21656,"HOLCONNE","Hollow Rd & Conshohocken State - FS","Bus","No",0,NA,"No","APC (InfoDev)",NA,0,0,0,0,0,0,40.031165,-75.262824,"{857CCD67-C854-40B5-86D9-A2507D8AD9EE}","2019"
4159,"52780N","City","52","Northbound",30,780,"52NHAVNO","52nd St & Haverford Av - FS","Bus","Yes",335,"52HA","No","APC (InfoDev)",NA,212,318,107,163,88,117,39.965197,-75.224591,"{8894DFEE-2353-44E7-8757-A633F030DE3E}","2019"
21636,"5221713S","City","52","Southbound",84,21713,"54TWARSE","54th St & Warrington St","Bus","No",0,NA,"No","APC (InfoDev)",NA,58,180,14,67,9,62,39.941887,-75.225661,"{C1E2C769-AC91-47E9-AB2F-AB5925371EE8}","2019"
14918,"5229567N","City","52","Northbound",67,29567,"BALHIGNO","Bala Av & Highland Av","Bus","No",0,NA,"No","APC (InfoDev)",NA,0,1,0,0,0,0,40.004996,-75.232052,"{DB65641E-1025-42FD-BE53-B01C24986437}","2019"
5016,"5221701S","City","52","Southbound",71,21701,"52NCHESO","52nd St & Chestnut St","Bus","No",0,NA,"No","APC (InfoDev)",NA,347,320,170,155,104,122,39.958567,-75.225283,"{37184F84-7DF9-466C-B482-B382A23A96A6}","2019"
2320,"5221698S","City","52","Southbound",66,21698,"52NPARSO","52nd St & Parrish St - FS","Bus","No",0,NA,"No","APC (InfoDev)",NA,139,51,67,37,51,28,39.966411,-75.224954,"{AEB4F160-6C89-406E-86D4-B67E21FA8278}","2019"
21859,"523574N","City","52","Northbound",26,3574,"52NCHENO","52nd St & Chestnut St","Bus","No",0,NA,"No","APC (InfoDev)",NA,252,249,148,134,86,75,39.958361,-75.225154,"{059F8D7F-B74B-4054-91DC-B6B52FB6090D}","2019"
6971,"5221730N","City","52","Northbound",8,21730,"54TKISNW","54th St & Kingsessing Av - FS","Bus","No",0,NA,"No","APC (InfoDev)",NA,96,10,60,14,48,7,39.938739,-75.221727,"{AAD85791-D9B4-45DA-825A-B9015E5BE422}","2019"
27,"5222290N","City","52","Northbound",47,22290,"JEF53RNW","Jefferson St & 53rd St","Bus","No",0,NA,"No","APC (InfoDev)",NA,26,66,11,39,7,27,39.980455,-75.227997,"{46F5B4D4-E4C4-422F-B836-B94A8D18512B}","2019"
5949,"5221747N","City","52","Northbound",32,21747,"52NWESNO","52nd St & Westminster Av - FS","Bus","No",0,NA,"No","APC (InfoDev)",NA,69,185,36,118,28,75,39.968286,-75.225078,"{AB273693-C4C4-451D-B80E-B9F23733A791}","2019"
6676,"5221727N","City","52","Northbound",6,21727,"54TWOONW","54th St & Woodland Av - FS","Bus","No",0,NA,"No","APC (InfoDev)",NA,317,28,197,16,140,23,39.93653,-75.219112,"{0AB8873C-390D-4AD3-B347-BADE9CE9EE66}","2019"
1452,"5229573S","City","52","Southbound",13,29573,"OAKOAKWE","Oakwood Dr & Oakwood Ter","Bus","No",0,NA,"No","APC (InfoDev)",NA,0,0,0,0,0,0,40.038994,-75.257508,"{DDCCA8AD-BFA9-454B-90AF-BBC39BB83CF8}","2019"
13087,"5221691S","City","52","Southbound",51,21691,"JEFLINSE","Jefferson St & Lindenwood St","Bus","No",0,NA,"No","APC (InfoDev)",NA,24,11,15,6,12,5,39.980097,-75.227301,"{C24937D6-BBD0-4419-B35F-BDB5F78D9DC9}","2019"
18603,"5220589N","City","52","Northbound",59,20589,"54TCITNO","54th St & City Av","Bus","Yes",422,"54ST","No","APC (InfoDev)",NA,1,13,0,0,0,0,39.99696,-75.235135,"{ABCF04A9-B0F8-4EE9-B560-BFD1D3523909}","2019"
8612,"5221706S","City","52","Southbound",76,21706,"52NLARSO","52nd St & Larchwood St","Bus","No",0,NA,"No","APC (InfoDev)",NA,40,134,20,69,17,40,39.952098,-75.226612,"{5A51A9F9-B6FB-4868-B1C6-C0CDCFA2CB1D}","2019"
11646,"5221708S","City","52","Southbound",78,21708,"52NCATSO","52nd St & Catherine St - FS","Bus","No",0,NA,"No","APC (InfoDev)",NA,38,138,24,79,24,51,39.948797,-75.227318,"{BF921ABE-9BD8-4F3A-9CF0-C0F39915C1F3}","2019"
15451,"5231450S","City","52","Southbound",24,31450,"CONMARSE","Conshohocken State Rd & Mary Waters Ford Rd","Bus","No",0,NA,"No","APC (InfoDev)",NA,1,0,0,0,0,0,40.020627,-75.245922,"{01CFA7A0-9A39-4D3E-BB11-C1A8B7254559}","2019"
2669,"5231449N","City","52","Northbound",76,31449,"CONMARNW","Conshohocken State Rd & Mary Waters Ford Rd","Bus","No",0,NA,"No","APC (InfoDev)",NA,0,1,0,0,0,0,40.020618,-75.245732,"{684268FE-E82C-438B-A685-C2EAC624EE3B}","2019"
19380,"52776S","City","52","Southbound",86,776,"54TCHESE","54th St & Chester Av","Bus","No",0,NA,"No","APC (InfoDev)",NA,80,289,42,223,25,132,39.939696,-75.223058,"{5C3CEC12-C71B-4203-A26E-C3879168CBBD}","2019"
13375,"5221743N","City","52","Northbound",25,21743,"52NWALNO","52nd St & Walnut St","Bus","No",0,NA,"No","APC (InfoDev)",NA,161,94,71,52,35,32,39.956854,-75.225453,"{78EFD30B-E233-4FE9-B9B2-C59AD18CBDBC}","2019"
11704,"5221688S","City","52","Southbound",46,21688,"54TBERSO","54th St & Berks St","Bus","No",0,NA,"No","APC (InfoDev)",NA,255,69,138,30,88,17,39.985941,-75.231975,"{5286339B-6773-4488-B9D6-CB439A22A3F4}","2019"
19877,"52769S","City","52","Southbound",70,769,"52NMARSO","52nd St & Market St - south","Bus","Yes",467,"52MA","No","APC (InfoDev)",NA,968,1401,512,808,320,474,39.9602,-75.224948,"{80378A7A-9A7B-4853-8762-CC6D6820DDB2}","2019"
5107,"5220742N","City","52","Northbound",4,20742,"WOO52NSW","Woodland Av & 52nd St","Bus","No",0,NA,"No","APC (InfoDev)",NA,87,17,48,4,43,4,39.938408,-75.216214,"{033D9B96-4136-4D76-8459-CDB929ED363E}","2019"
13301,"5221746N","City","52","Northbound",31,21746,"52NPARNO","52nd St & Parrish St","Bus","No",0,NA,"No","APC (InfoDev)",NA,78,158,29,71,45,64,39.966536,-75.224812,"{58F7B34B-B52A-49BB-A2B0-CEC92D81A88B}","2019"
5075,"52771S","City","52","Southbound",79,771,"52NBALSO","52nd St & Baltimore Av","Bus","Yes",468,"52BA","No","APC (InfoDev)",NA,130,312,74,163,35,107,39.94787,-75.227498,"{FC1EDF7E-37D0-4318-A28C-CECFD8D2B5BF}","2019"
8425,"5230134N","City","52","Northbound",91,30134,"OAKOAWSW","Oakwood Dr & Oakwood Ter - MBNS","Bus","No",0,NA,"No","APC (InfoDev)",NA,0,0,0,0,0,0,40.039528,-75.256159,"{226E0C39-3865-4F89-88D7-D17625D47A05}","2019"
2821,"5220743N","City","52","Northbound",5,20743,"WOO53RSW","Woodland Av & 53rd St","Bus","No",0,NA,"No","APC (InfoDev)",NA,52,13,29,4,23,2,39.937438,-75.217598,"{5A6FA2FE-DABD-475D-B7EF-D1AF406573B4}","2019"
9054,"5221257N","City","52","Northbound",9,21257,"54TCHENW","54th St & Chester Av","Bus","Yes",0,"54CH","No","APC (InfoDev)",NA,401,51,264,41,179,22,39.93958,-75.222775,"{E07C0743-82D0-49E9-8DE2-D33F9D48E363}","2019"
17883,"5230138S","City","52","Southbound",40,30138,"54TCITSO","54th St & City Av - MBFS","Bus","Yes",1,"54CL","No","APC (InfoDev)",NA,417,2,354,0,211,0,39.995986,-75.23457,"{0C4E03BE-BEC1-452E-B001-D4A5002D92BE}","2019"
10102,"5221710S","City","52","Southbound",81,21710,"54TWHISE","54th St & Whitby Av - FS","Bus","No",0,NA,"No","APC (InfoDev)",NA,43,185,25,118,15,76,39.945133,-75.229501,"{57DB2F53-BAF5-4F9B-B5BE-D4F72CEEF96C}","2019"
6651,"5221685S","City","52","Southbound",43,21685,"54TWODSO","54th St & Woodcrest Av","Bus","No",0,NA,"No","APC (InfoDev)",NA,64,1,42,1,26,2,39.990799,-75.233604,"{89ADFAED-3311-437B-8989-D69F3C8D3B39}","2019"
15486,"5221793N","City","52","Northbound",82,21793,"HAGFL2NW","Hagys Ford Rd & Flat Rock Rd","Bus","No",0,NA,"No","APC (InfoDev)",NA,0,1,0,0,0,0,40.030198,-75.254066,"{99C0FE05-A263-4387-BCF0-DC7DED7BE209}","2019"
4622,"5221762N","City","52","Northbound",50,21762,"54TMONNW","54th St & Montgomery Av","Bus","No",0,NA,"No","APC (InfoDev)",NA,33,188,14,121,16,98,39.984003,-75.231165,"{ACBE9DB4-CA76-4C62-AB52-DCAA54F87D28}","2019"
3623,"5221766N","City","52","Northbound",54,21766,"54TWODNW","54th St & Woodcrest Av - FS","Bus","No",0,NA,"No","APC (InfoDev)",NA,19,137,6,90,11,79,39.990826,-75.233462,"{8B65DC98-C821-480E-83E9-DCDB576D69DC}","2019"
380,"5229556S","City","52","Southbound",20,29556,"HAGTOWSW","Hagys Ford Rd & Tower Ln - MBNS","Bus","No",0,NA,"No","APC (InfoDev)",NA,1,0,0,0,0,0,40.027511,-75.25347,"{7261D76E-37D5-4631-AEA3-DF3E79A1A6CE}","2019"
20387,"5221256S","City","52","Southbound",95,21256,"49TWOOSE","49th St & Woodland Av","Bus","Yes",187,"49WO","No","APC (InfoDev)",NA,11,332,5,204,6,148,39.940866,-75.212759,"{6BBA778C-5E5F-4958-BE7E-DF73FA2C3B01}","2019"
9566,"5221693S","City","52","Southbound",60,21693,"52NMEDSO","52nd St & Media St","Bus","No",0,NA,"No","APC (InfoDev)",NA,133,25,37,4,43,4,39.975812,-75.226746,"{557AAA0C-8292-46EE-A155-E028312D738E}","2019"
1783,"5221704S","City","52","Southbound",74,21704,"52NSPRSO","52nd St & Spruce St - FS","Bus","No",0,NA,"No","APC (InfoDev)",NA,77,111,35,53,31,51,39.954427,-75.226133,"{C8059903-B89F-44EF-8B4E-E30F15AD837C}","2019"
10388,"5221773N","City","52","Northbound",72,21773,"CONLEVNW","Conshohocken State Rd & Levering","Bus","No",0,NA,"No","APC (InfoDev)",NA,0,2,0,0,0,0,40.013401,-75.235965,"{16D5DAC6-77AA-4F4D-BB2D-E33F122F0489}","2019"
1690,"5230136S","City","52","Southbound",1,30136,"YOURIGSW","Youngs Ford Rd & Righters Mill Rd","Bus","Yes",676,"GLWY","No","APC (InfoDev)",NA,12,0,0,0,0,0,40.038024,-75.280247,"{8E2E7893-C9C0-45D6-B74E-E3BB67D95A45}","2019"
20912,"5221771N","City","52","Northbound",70,21771,"CONLODNW","Conshohocken State Rd & Lodges Ln","Bus","No",0,NA,"No","APC (InfoDev)",NA,0,0,0,0,0,0,40.010711,-75.233821,"{D64CEE69-2FD8-43A5-B439-E40AF0AE2120}","2019"
11076,"5221757S","City","52","Southbound",56,21757,"52NCOLSW","52nd St & Columbia Av","Bus","Yes",0,"52CO","No","APC (InfoDev)",NA,6,0,0,0,0,0,39.980566,-75.224748,"{D30486D8-8059-4536-AFE7-E4F0B14EA335}","2019"
17545,"5221722N","City","52","Northbound",41,21722,"52NPARNE","52nd St & Parkside Av","Bus","No",0,NA,"No","APC (InfoDev)",NA,1,18,0,0,0,0,39.98143,-75.224037,"{2C08F60A-9BBD-43E6-8CD9-E74497A25487}","2019"
15436,"5222217S","City","52","Southbound",47,22217,"54TMONSO","54th St & Montgomery Av","Bus","No",0,NA,"No","APC (InfoDev)",NA,171,34,110,21,77,15,39.984155,-75.231365,"{4EC84A37-13FD-4D9B-B229-E80BEB9F43AF}","2019"
15440,"5221705S","City","52","Southbound",75,21705,"52NPINSO","52nd St & Pine St","Bus","No",0,NA,"No","APC (InfoDev)",NA,138,237,77,112,55,73,39.953633,-75.226313,"{287F89DF-E6C4-42B3-B128-E816DF22ACA5}","2019"
19940,"5231610N","City","52","Northbound",55,31610,"CARCITNO","Cardinal Av & City Av","Bus","No",0,NA,"No","APC (InfoDev)",NA,6,82,1,41,3,32,39.994024,-75.241441,"{11730B02-F7F9-4C54-82B2-E993C617B0D1}","2019"
15841,"5221714S","City","52","Southbound",85,21714,"54TSPRSE","54th St & Springfield Av","Bus","No",0,NA,"No","APC (InfoDev)",NA,18,127,7,76,9,47,39.940724,-75.224295,"{026F8064-F304-4777-9CF2-EFFFCA9BB851}","2019"
12649,"5229557S","City","52","Southbound",21,29557,"HAGTOESW","Hagys Ford Rd & Tower Ln","Bus","No",0,NA,"No","APC (InfoDev)",NA,1,0,0,0,0,0,40.026568,-75.255706,"{32F20279-47DA-4F17-ADAC-F04BD24941CE}","2019"
2167,"5221707S","City","52","Southbound",77,21707,"52NCEDSO","52nd St & Cedar Av","Bus","No",0,NA,"No","APC (InfoDev)",NA,78,228,30,105,21,64,39.950564,-75.226936,"{CF9642FC-4A47-4BD1-9520-F2504678AB4C}","2019"
8361,"526239N","City","52","Northbound",61,6239,"CIT53RNE","City Av & 53rd St","Bus","Yes",2296,NA,"No","APC (InfoDev)",NA,2,31,3,3,2,1,39.997449,-75.234365,"{A9562AE3-6662-48BF-BF29-F2B41DDEBD13}","2019"
6385,"5221712S","City","52","Southbound",83,21712,"54TFLOSE","54th St & Florence Av","Bus","No",0,NA,"No","APC (InfoDev)",NA,53,239,24,99,15,69,39.942969,-75.226945,"{B66317F1-766A-445E-B302-F48FE60ED732}","2019"
11133,"5230844S","City","52","Southbound",54,30844,"50TPARNO","50th St & Parkside Av","Bus","No",0,NA,"No","APC (InfoDev)",NA,10,0,0,0,0,0,39.979825,-75.219328,"{A28F7662-30D5-4850-841B-F4F97DF0717C}","2019"
19356,"5221652S","City","52","Southbound",2,21652,"BLACONNE","Black Rock Rd & Conshohocken State","Bus","No",0,NA,"No","APC (InfoDev)",NA,1,0,0,0,0,0,40.03954,-75.279853,"{8781A567-2FAA-4755-A1A4-F526F87EAB9B}","2019"
21223,"5221700S","City","52","Southbound",69,21700,"52NARCSO","52nd St & Arch St - FS","Bus","No",0,NA,"No","APC (InfoDev)",NA,41,83,15,62,19,28,39.961404,-75.224696,"{B8DF1227-34F9-44BC-8908-F6C15A3BEBC7}","2019"
11710,"5229563S","City","52","Southbound",29,29563,"CONOVESE","Conshohocken State Rd & Overhill Rd","Bus","No",0,NA,"No","APC (InfoDev)",NA,0,0,0,0,0,0,40.015171,-75.237544,"{CEF81042-1C67-4A6E-8EBA-F752CD9D2E31}","2019"
7621,"5221682S","City","52","Southbound",36,21682,"BALUNISE","Bala Av & Union Av","Bus","No",0,NA,"No","APC (InfoDev)",NA,0,0,0,0,0,0,40.003174,-75.231277,"{5AE765B7-FAC4-4225-929C-F7690AF3AA25}","2019"
14822,"5230131N","City","52","Northbound",79,30131,"HAGTOWNE","Hagys Ford Rd & Tower Ln - FS","Bus","No",0,NA,"No","APC (InfoDev)",NA,0,1,0,0,0,0,40.026514,-75.255505,"{8CF1CA48-B139-4993-A371-F7DC7A22588D}","2019"
20703,"5221690S","City","52","Southbound",49,21690,"54TOXFSO","54th St & Oxford St","Bus","No",0,NA,"No","APC (InfoDev)",NA,50,4,23,5,20,2,39.981771,-75.230321,"{565D03E4-1731-4CBE-A13A-F880A0CE6583}","2019"
3482,"5229566S","City","52","Southbound",35,29566,"BALHIGSO","Bala Av & Highland Av","Bus","No",0,NA,"No","APC (InfoDev)",NA,0,0,0,0,0,0,40.005104,-75.232206,"{48435D32-C60E-4C90-8782-F93A4CE3F844}","2019"
6352,"5230223S","City","52","Southbound",11,30223,"OAKLOONO","Oak Hill Apartments Loop","Bus","Yes",677,"OHAP","No","APC (InfoDev)",NA,3,0,0,0,0,0,40.040856,-75.254867,"{61B9AA20-8B6E-415E-95AC-F94746236277}","2019"
10612,"5221683S","City","52","Southbound",41,21683,"54TOVESO","54th St & Overbrook Av","Bus","No",0,NA,"No","APC (InfoDev)",NA,95,0,36,0,34,0,39.994888,-75.234136,"{92814F1B-2D47-480E-85A0-F991A48AC7B5}","2019"
20342,"5221776N","City","52","Northbound",74,21776,"CONDARNE","Conshohocken State Rd & Dartmouth","Bus","No",0,NA,"No","APC (InfoDev)",NA,0,1,0,0,0,0,40.016895,-75.238839,"{E9855300-72FB-4145-B3F5-FA390E2A29DD}","2019"
12956,"5230223N","City","52","Northbound",90,30223,"OAKLOONO","Oak Hill Apartments Loop","Bus","Yes",677,"OHAP","No","APC (InfoDev)",NA,0,3,0,0,0,0,40.040856,-75.254867,"{CE8FD4A6-87FC-4A16-8DEA-FBBD7D2A0855}","2019"
14493,"5229562S","City","52","Southbound",31,29562,"CONDERSE","Conshohocken State Rd & Derwen Rd","Bus","No",0,NA,"No","APC (InfoDev)",NA,0,0,0,0,0,0,40.012383,-75.235353,"{AD54B657-F142-46AB-8589-FFC6AA80EDBF}","2019"
