"OBJECTID","GIS_DB_ID","Route","Direction","Stop_ID","Sequence","Stop_Abbre","Stop_Name","Sign_Up","Mode","School_Rou","Source","Weekday_Bo","Weekday_Le","Weekday_To","Saturday_B","Saturday_L","Saturday_T","Sunday_Boa","Sunday_Lea","Sunday_Tot","Latitude","Longitude","GlobalID","year"
7391,"5221256N","52","N",21256,1,"49TWOOSE","49th St & Woodland Av","City","Bus","No","APC Fall 2016",47,0,47,43,0,43,22,0,22,39.940866,-75.212759,"{A1254DB7-3ED8-466E-8351-E945D5980B8E}","2016"
7392,"52317N","52","N",317,2,"WOO50TSW","Woodland Av & 50th St","City","Bus","No","APC Fall 2016",633,83,716,337,41,378,315,43,358,39.940064,-75.213848,"{73F1EC37-D1B2-4E0E-A87A-5F7261494C65}","2016"
7393,"5220741N","52","N",20741,3,"WOO51SSW","Woodland Av & 51st St","City","Bus","No","APC Fall 2016",46,1,47,21,1,22,22,1,23,39.939192,-75.215102,"{02AD7F25-5E89-4EB0-A24C-13A1235D127C}","2016"
7394,"5220742N","52","N",20742,4,"WOO52NSW","Woodland Av & 52nd St","City","Bus","No","APC Fall 2016",92,7,99,71,6,77,44,3,47,39.938408,-75.216214,"{5650590B-3061-4223-87B9-84DD938EC74A}","2016"
7395,"5220743N","52","N",20743,5,"WOO53RSW","Woodland Av & 53rd St","City","Bus","No","APC Fall 2016",60,6,66,36,2,38,24,2,26,39.937438,-75.217598,"{D257D5E0-1F1E-4522-9B21-5179832E3175}","2016"
7396,"5221727N","52","N",21727,6,"54TWOONW","54th St & Woodland Av - FS","City","Bus","No","APC Fall 2016",438,26,464,225,19,244,192,12,204,39.93653,-75.219112,"{4CBFA6FE-EF5F-49E6-978B-E2014A82A383}","2016"
7397,"5221728N","52","N",21728,7,"54TGRENW","54th St & Greenway Av","City","Bus","No","APC Fall 2016",78,11,89,41,4,45,40,7,47,39.93738,-75.220113,"{84E16485-5611-4062-B4C0-0E37BDCA0D4B}","2016"
7398,"5221730N","52","N",21730,8,"54TKISNW","54th St & Kingsessing Av - FS","City","Bus","No","APC Fall 2016",70,12,82,41,6,47,27,5,32,39.938739,-75.221727,"{70697813-EB9F-4139-874B-8E8603EC58FE}","2016"
7399,"5221257N","52","N",21257,9,"54TCHENW","54th St & Chester Av","City","Bus","No","APC Fall 2016",404,75,479,311,43,354,250,34,284,39.93958,-75.222775,"{BB06DC5F-B448-45CE-9018-99D15C528FF0}","2016"
7400,"5221257N","52","N",21257,10,"54TCHENW","54th St & Chester Av","City","Bus","No","APC Fall 2016",404,75,479,311,43,354,250,34,284,39.93958,-75.222775,"{DAD3F002-813E-479E-814F-9A4B436884C1}","2016"
7401,"5221731N","52","N",21731,11,"54TSPRNW","54th St & Springfield Av","City","Bus","No","APC Fall 2016",134,22,156,42,16,58,48,11,59,39.940697,-75.224035,"{50D1A3B8-52A7-4401-99D7-F2C6D94506C6}","2016"
7402,"5221732N","52","N",21732,12,"54TWARNW","54th St & Warrington Av","City","Bus","No","APC Fall 2016",245,100,345,79,21,100,58,19,77,39.94186,-75.225437,"{57EB8E7F-F47E-499E-BDEA-7187CC1936AA}","2016"
7403,"5221733N","52","N",21733,13,"54TFLONW","54th St & Florence Av","City","Bus","No","APC Fall 2016",260,59,319,111,23,134,81,19,100,39.942951,-75.226685,"{D2E01BF7-FACA-4585-8657-6AFC2E7ACC59}","2016"
7404,"5221734N","52","N",21734,14,"54TWILNW","54th St & Willows Av","City","Bus","No","APC Fall 2016",202,62,264,99,26,125,101,27,128,39.94414,-75.228052,"{A6A9779B-B984-4537-A65C-B397762E6D25}","2016"
7405,"5221735N","52","N",21735,15,"54TWHINW","54th St & Whitby Av","City","Bus","No","APC Fall 2016",226,48,274,111,34,145,81,30,111,39.945258,-75.229418,"{E04458F3-612C-4EAD-BB13-BF68BE2DA74F}","2016"
7406,"5221736N","52","N",21736,16,"WHI53RNE","Whitby Av & 53rd St","City","Bus","No","APC Fall 2016",12,21,33,5,14,19,3,4,7,39.94581,-75.228756,"{2BD70C1B-307F-4D30-89E4-DDBC3F097F2E}","2016"
7407,"5225520N","52","N",25520,17,"WHI52NNE","Whitby Av & 52nd St - MBNS","City","Bus","No","APC Fall 2016",4,9,13,1,8,9,0,4,4,39.946727,-75.227454,"{A9FB9D13-8E18-45C6-803E-954C680A5E74}","2016"
7408,"52777N","52","N",777,18,"52NBALNW","52nd St & Baltimore Av","City","Bus","No","APC Fall 2016",400,158,558,226,69,295,155,58,213,39.947709,-75.227262,"{59E5C51B-2B8B-462A-86C9-C2BEB83FE5A8}","2016"
7409,"5221737N","52","N",21737,19,"52NCATNO","52nd St & Catherine St - FS","City","Bus","No","APC Fall 2016",116,27,143,68,14,82,47,13,60,39.949118,-75.227081,"{BF1C9110-883C-48F4-906C-572EA2162A6C}","2016"
7410,"5221738N","52","N",21738,20,"52NCEDNO","52nd St & Cedar Av - FS","City","Bus","No","APC Fall 2016",238,79,317,97,25,122,61,32,93,39.950626,-75.226746,"{28CC29A6-27AE-4893-8409-BE5A5AB5C9A3}","2016"
7411,"5221739N","52","N",21739,21,"52NLARNO","52nd St & Larchwood Av","City","Bus","No","APC Fall 2016",160,37,197,72,23,95,48,17,65,39.951929,-75.226483,"{26B7FC2E-D7ED-4E1E-91A4-BD8AC712BE81}","2016"
7412,"5221740N","52","N",21740,22,"52NPINNO","52nd St & Pine St - FS","City","Bus","No","APC Fall 2016",150,59,209,54,20,74,35,19,54,39.953695,-75.226124,"{1EB607D8-6DA2-4228-B72C-77FA73C5CAC4}","2016"
7413,"5221741N","52","N",21741,23,"52NSPRNO","52nd St & Spruce St - FS","City","Bus","No","APC Fall 2016",282,118,400,160,105,265,109,54,163,39.954748,-75.225884,"{B321A2EC-759B-4F78-AB8B-D0416D838DA5}","2016"
7414,"5221742N","52","N",21742,24,"52NLOCNO","52nd St & Locust St - FS","City","Bus","No","APC Fall 2016",50,26,76,24,16,40,21,8,29,39.955979,-75.225645,"{13CFDBFE-3777-4CA4-B9BC-35B96962EE90}","2016"
7415,"5221743N","52","N",21743,25,"52NWALNO","52nd St & Walnut St","City","Bus","No","APC Fall 2016",230,125,355,130,75,205,77,49,126,39.956854,-75.225453,"{2A580FF3-50CE-4776-AE96-0CFAA928AFDC}","2016"
7416,"523574N","52","N",3574,26,"52NCHENO","52nd St & Chestnut St","City","Bus","No","APC Fall 2016",272,221,493,151,120,271,95,60,155,39.958361,-75.225154,"{025D5432-1FEC-4351-A4D5-7B9E5C51407A}","2016"
7417,"52779N","52","N",779,27,"52NMARNO","52nd St & Market St","City","Bus","No","APC Fall 2016",1918,1498,3416,986,712,1698,690,544,1234,39.959825,-75.224878,"{62D80837-35A3-4236-89FF-F588B1E797C8}","2016"
7418,"5221744N","52","N",21744,28,"52NARCNO","52nd St & Arch St - FS","City","Bus","No","APC Fall 2016",102,42,144,61,29,90,54,22,76,39.961725,-75.224459,"{7350815E-342B-4A51-9FAF-FE4A6532F6B5}","2016"
7419,"5221745N","52","N",21745,29,"52NRACNO","52nd St & Race St","City","Bus","No","APC Fall 2016",70,82,152,46,55,101,43,56,99,39.962992,-75.224196,"{35962EDA-8224-4B4D-87C6-96AF58571EB7}","2016"
7420,"52780N","52","N",780,30,"52NHAVNO","52nd St & Haverford Av - FS","City","Bus","No","APC Fall 2016",142,232,374,82,133,215,56,89,145,39.965197,-75.224591,"{BE4D78EE-81A5-4797-8A0C-A804DC2AA808}","2016"
7421,"5221746N","52","N",21746,31,"52NPARNO","52nd St & Parrish St","City","Bus","No","APC Fall 2016",58,114,172,34,58,92,25,36,61,39.966536,-75.224812,"{8341B99F-26CD-4AFE-986A-D9B8D6DBA4D3}","2016"
7422,"5221747N","52","N",21747,32,"52NWESNO","52nd St & Westminster Av - FS","City","Bus","No","APC Fall 2016",57,164,221,48,90,138,49,91,140,39.968286,-75.225078,"{9FBBC5B2-4A0D-4020-8669-B4E9795F5743}","2016"
7423,"5221748N","52","N",21748,33,"52NWYANO","52nd St & Wyalusing Av - FS","City","Bus","No","APC Fall 2016",42,98,140,26,52,78,24,53,77,39.969678,-75.225358,"{5599C2FA-5E5D-4EA3-939B-B4D39D41B5B7}","2016"
7424,"52781N","52","N",781,34,"52NGIRNO","52nd St & Girard Av","City","Bus","No","APC Fall 2016",195,522,717,134,295,429,87,212,299,39.971339,-75.225743,"{C89C5B84-858E-468F-BAE7-E092C3B5E7D5}","2016"
7425,"5221749N","52","N",21749,35,"52NTHONO","52nd St & Thompson St - FS","City","Bus","No","APC Fall 2016",43,155,198,35,76,111,31,65,96,39.973116,-75.22608,"{08994C8F-1D50-49EF-A165-2B2BA8326C3E}","2016"
7426,"5221750N","52","N",21750,36,"52NMASNO","52nd St & Master St - FS","City","Bus","No","APC Fall 2016",45,180,225,34,91,125,20,65,85,39.974401,-75.226301,"{4A0A588F-BE2C-4A00-9F0B-F71C2D147909}","2016"
7427,"5221751N","52","N",21751,37,"52NWARNO","52nd St & Warren St - FS","City","Bus","No","APC Fall 2016",69,346,415,22,146,168,9,108,117,39.976455,-75.226673,"{2EA0068A-60C9-4AFA-9FBD-51C1F4506363}","2016"
7428,"5221752N","52","N",21752,38,"52NLANNO","52nd St & Lancaster Av - FS","City","Bus","No","APC Fall 2016",106,211,317,53,126,179,42,89,131,39.977632,-75.226422,"{94F26A2C-CB5B-4D39-8C8C-ACFD83DA5F0F}","2016"
7429,"5231039N","52","N",31039,39,"PARWESWE","Parkwest Town Center","City","Bus","No","APC Fall 2016",98,315,413,56,241,297,41,141,182,39.978715,-75.222733,"{BD951890-7E82-4402-B683-A5F39064A78B}","2016"
7430,"5225521N","52","N",25521,40,"52NJEFNE","52nd St & Jefferson St - FS","City","Bus","No","APC Fall 2016",8,185,193,0,0,0,0,0,0,39.979558,-75.2252,"{0A40A607-1A70-447A-AC92-C829C9E6BEAB}","2016"
7431,"5221721N","52","N",21721,41,"52NCOLNE","52nd St & Columbia Av","City","Bus","No","APC Fall 2016",2,16,18,0,0,0,0,0,0,39.980378,-75.224689,"{43DDC332-6EF9-4BA7-87D0-B43F2F554CA5}","2016"
7432,"5221722N","52","N",21722,42,"52NPARNE","52nd St & Parkside Av","City","Bus","No","APC Fall 2016",0,11,11,0,0,0,0,0,0,39.98143,-75.224037,"{1843BC29-8E6B-4BF5-8F65-F5F446442623}","2016"
7433,"5221723N","52","N",21723,43,"PARPAXSE","Parkside Av & Paxon St","City","Bus","No","APC Fall 2016",0,12,12,0,0,0,0,0,0,39.981143,-75.22262,"{F2D29156-23E8-4D6B-926A-3CE749BD6A79}","2016"
7434,"5221724N","52","N",21724,44,"PAR51SSE","Parkside Av & 51st St","City","Bus","No","APC Fall 2016",1,168,169,0,0,0,0,0,0,39.980721,-75.221581,"{5328D639-18D0-4E6D-87CE-5BF5B326B8E2}","2016"
7435,"5221725N","52","N",21725,45,"PAR50TSE","Parkside Av & 50th St","City","Bus","No","APC Fall 2016",1,45,46,0,0,0,0,0,0,39.979923,-75.219422,"{B17E9CF0-C5E1-4652-806F-5183D166667E}","2016"
7436,"5230771N","52","N",30771,46,"PARLOOSO","50th & Parkside Loop","City","Bus","No","APC Fall 2016",0,62,62,0,0,0,0,0,0,39.978201,-75.219687,"{9572AF64-B980-4877-8BDB-DCCF0F12E543}","2016"
7437,"5221758N","52","N",21758,47,"JEF52NNW","Jefferson St & 52nd St - FS","City","Bus","No","APC Fall 2016",152,354,506,86,273,359,66,177,243,39.979577,-75.225554,"{3C9023FB-6E04-498B-82A3-1BF1D83B38EE}","2016"
7438,"5221759N","52","N",21759,48,"JEFLINNW","Jefferson St & Lindenwood St","City","Bus","No","APC Fall 2016",16,59,75,7,47,54,4,37,41,39.980123,-75.227041,"{B691976F-6FD6-4BCA-AFF6-5858E4713A45}","2016"
7439,"5222290N","52","N",22290,49,"JEF53RNW","Jefferson St & 53rd St","City","Bus","No","APC Fall 2016",30,62,92,14,27,41,19,27,46,39.980455,-75.227997,"{B1E75F82-3158-4A5A-8FB1-48BDCA3755D9}","2016"
7440,"5221760N","52","N",21760,50,"54TOXFNW","54th St & Oxford St","City","Bus","No","APC Fall 2016",3,26,29,1,12,13,2,5,7,39.981467,-75.229967,"{34A69023-FD06-4BD7-80C9-7984BBC6C771}","2016"
7441,"5221761N","52","N",21761,51,"54TCOLNW","54th St & Columbia Av","City","Bus","No","APC Fall 2016",10,85,95,7,39,46,5,37,42,39.982414,-75.230602,"{A063B742-419D-4AA1-8314-B6A828B7F2A9}","2016"
7442,"5221762N","52","N",21762,52,"54TMONNW","54th St & Montgomery Av","City","Bus","No","APC Fall 2016",35,254,289,19,150,169,18,140,158,39.984003,-75.231165,"{570BC978-E292-4AFA-9AA8-1FB6DA4C823B}","2016"
7443,"5221763N","52","N",21763,53,"54TBERNW","54th St & Berks St","City","Bus","No","APC Fall 2016",60,387,447,27,217,244,17,158,175,39.985789,-75.231774,"{B5BD7D50-234A-4CCA-BBDE-E9C1ABCF8AD9}","2016"
7444,"5221764N","52","N",21764,54,"54TLEBNW","54th St & Lebanon Av","City","Bus","No","APC Fall 2016",23,160,183,12,86,98,7,91,98,39.987325,-75.232314,"{7BA35145-8927-4CE3-9324-3963BBD64683}","2016"
7445,"5221765N","52","N",21765,55,"54TGAINW","54th St & Gainor Rd","City","Bus","No","APC Fall 2016",16,122,138,7,58,65,8,64,72,39.988852,-75.232829,"{60E75D23-A154-4FB3-B42B-CA74B3833911}","2016"
7446,"5221766N","52","N",21766,56,"54TWODNW","54th St & Woodcrest Av - FS","City","Bus","No","APC Fall 2016",14,165,179,8,112,120,4,91,95,39.990826,-75.233462,"{DF1C2E34-3BBE-4234-8811-D90A64E968E8}","2016"
7447,"5231610N","52","N",31610,57,"CARCITNO","Cardinal Av & City Av","City","Bus","No","APC Fall 2016",8,108,116,4,48,52,2,38,40,39.994024,-75.241441,"{109A68BF-E6A6-4A0F-BE14-8F0D327F18C7}","2016"
7448,"5220591N","52","N",20591,58,"CIT54HNE","City Av & 54th St","City","Bus","No","APC Fall 2016",31,544,575,33,378,411,28,273,301,39.996969,-75.235383,"{5F7470CD-A077-43A2-A7BE-5A6F6B93A487}","2016"
7449,"5231630N","52","N",31630,59,"54TWOONO","54th St & Woodbine Av - FS","City","Bus","No","APC Fall 2016",0,1,1,0,0,0,0,0,0,39.992343,-75.233647,"{6CC5AFE8-DF31-49DE-BEE7-427F296F3B9F}","2016"
7450,"5221768N","52","N",21768,60,"54TOVENO","54th St & Overbrook Av","City","Bus","No","APC Fall 2016",0,5,5,0,0,0,0,0,0,39.994628,-75.233924,"{E307E9FE-6D02-4F10-82D6-C9FA0F780F97}","2016"
7451,"5220589N","52","N",20589,61,"54TCITNO","54th St & City Av","City","Bus","No","APC Fall 2016",2,54,56,0,0,0,0,0,0,39.99696,-75.235135,"{BCC74BCE-B774-4E9A-B64B-69CC962944D4}","2016"
7452,"5230138N","52","N",30138,62,"54TCITSO","54th St & City Av - MBFS","City","Bus","No","APC Fall 2016",0,165,165,0,143,143,0,106,106,39.995986,-75.23457,"{F2B51FBA-2799-4918-BE16-7E982265404E}","2016"
7453,"526239N","52","N",6239,63,"CIT53RNE","City Av & 53rd St","City","Bus","No","APC Fall 2016",1,7,8,0,0,0,0,3,3,39.997449,-75.234365,"{F532C479-0009-4C4D-A31C-D2131E7D8A25}","2016"
7454,"526239N","52","N",6239,64,"CIT53RNE","City Av & 53rd St","City","Bus","No","APC Fall 2016",1,7,8,0,0,0,0,3,3,39.997449,-75.234365,"{6ADE1907-C00F-4A8C-80C3-1D948E076467}","2016"
7455,"5220592N","52","N",20592,65,"CIT52NNE","City Av & 52nd St","City","Bus","No","APC Fall 2016",2,1,3,0,0,0,0,0,0,39.997965,-75.233289,"{863AC36C-35F7-44F1-9B9C-E8CC8C57E621}","2016"
7456,"526232N","52","N",6232,66,"CITBRYNE","City Av & Bryn Mawr Av","City","Bus","No","APC Fall 2016",1,7,8,0,0,0,0,0,0,39.999024,-75.231017,"{88DEB530-192E-4A96-A47F-CE98AFB546A6}","2016"
7457,"5230129N","52","N",30129,67,"BALCITNW","Bala Av & City Av - FS","City","Bus","No","APC Fall 2016",11,7,18,0,0,0,0,0,0,40.000466,-75.22891,"{2738AB43-5065-433E-90CF-CBC66271792A}","2016"
7458,"5221769N","52","N",21769,68,"BALUNINW","Bala Av & Union Av","City","Bus","No","APC Fall 2016",0,1,1,0,0,0,0,0,0,40.003103,-75.231041,"{FD1A7402-59C4-4E6B-9A2F-921B0A8448BB}","2016"
7459,"5229567N","52","N",29567,69,"BALHIGNO","Bala Av & Highland Av","City","Bus","No","APC Fall 2016",0,1,1,0,0,0,0,0,0,40.004996,-75.232052,"{474ECDC9-6505-453A-87A7-816A23BB290A}","2016"
7460,"5221770N","52","N",21770,70,"BALMONNO","Bala Av & Montgomery Av","City","Bus","No","APC Fall 2016",0,2,2,0,0,0,0,0,0,40.006335,-75.232238,"{CFD0B932-44F9-4256-87AD-44080E45F93D}","2016"
7461,"5229568N","52","N",29568,71,"CONBAANO","Conshohocken State Rd & Bala Av","City","Bus","No","APC Fall 2016",0,1,1,0,0,0,0,0,0,40.007452,-75.232613,"{81A9ED72-57A7-4CFE-B13C-C3837CDDEC9E}","2016"
7462,"5221771N","52","N",21771,72,"CONLODNW","Conshohocken State Rd & Lodges Ln","City","Bus","No","APC Fall 2016",0,0,0,0,0,0,0,0,0,40.010711,-75.233821,"{4C20F251-6739-4EC6-B53F-15778B2DD098}","2016"
7463,"5230130N","52","N",30130,73,"COSDERNW","Conshohocken State Rd & Derwin Rd","City","Bus","No","APC Fall 2016",0,1,1,0,0,0,0,0,0,40.012311,-75.235117,"{F6101EAF-4285-44F8-B428-35B11088EA18}","2016"
7464,"5221773N","52","N",21773,74,"CONLEVNW","Conshohocken State Rd & Levering","City","Bus","No","APC Fall 2016",0,2,2,0,0,0,0,0,0,40.013401,-75.235965,"{C9DD4F62-EB9C-4728-8834-88E61262A506}","2016"
7465,"5221774N","52","N",21774,75,"CONOVENW","Conshohocken State Rd & Overhill Rd","City","Bus","No","APC Fall 2016",0,2,2,0,0,0,0,0,0,40.015099,-75.237308,"{E4EB3CAB-B81B-4AF6-95B9-1199152E4330}","2016"
7466,"5221776N","52","N",21776,76,"CONDARNE","Conshohocken State Rd & Dartmouth","City","Bus","No","APC Fall 2016",0,1,1,0,0,0,0,0,0,40.016895,-75.238839,"{3A286691-0A8E-4094-AB2F-F4E32F71B5D4}","2016"
7467,"5221777N","52","N",21777,77,"CONROCNW","Conshohocken State Rd & Rockhill Rd","City","Bus","No","APC Fall 2016",0,3,3,0,0,0,0,0,0,40.018245,-75.240041,"{82CC7161-F3AD-4E9E-BD08-0FC33FC60747}","2016"
7468,"5231449N","52","N",31449,78,"CONMARNW","Conshohocken State Rd & Mary Waters Ford Rd","City","Bus","No","APC Fall 2016",0,1,1,0,0,0,0,0,0,40.020618,-75.245732,"{27DF466F-4F19-498A-864C-527DA702DA84}","2016"
7469,"5221779N","52","N",21779,79,"CONCENNW","Conshohocken State Rd & Centennial","City","Bus","No","APC Fall 2016",0,2,2,0,0,0,0,0,0,40.023318,-75.255147,"{0816B606-2CC0-49DB-8FB8-0B773D1F6808}","2016"
7470,"5221780N","52","N",21780,80,"CONHAGNO","Conshohocken St & Hagys Ford Rd","City","Bus","No","APC Fall 2016",0,3,3,0,0,0,0,0,0,40.025348,-75.257565,"{B03C3318-16E3-435E-9FE0-63926D47CB08}","2016"
7471,"5230131N","52","N",30131,81,"HAGTOWNE","Hagys Ford Rd & Tower Ln - FS","City","Bus","No","APC Fall 2016",0,0,0,0,0,0,0,0,0,40.026514,-75.255505,"{F2FF4164-BEDC-453A-B2CF-5EB9655EA25A}","2016"
7472,"5229569N","52","N",29569,82,"HAGTOENE","Hagys Ford Rd & Tower Ln - MBFS","City","Bus","No","APC Fall 2016",0,0,0,0,0,0,0,0,0,40.027395,-75.253434,"{EC397C50-7934-4829-8260-F012BAFB5C73}","2016"
7473,"5221791N","52","N",21791,83,"HAGFL1NW","Hagys Ford Rd & Flat Rock Rd - MBNS","City","Bus","No","APC Fall 2016",0,0,0,0,0,0,0,0,0,40.029179,-75.252839,"{E8560352-89F2-4C0B-AC11-DBFEC96FC9C8}","2016"
7474,"5221793N","52","N",21793,84,"HAGFL2NW","Hagys Ford Rd & Flat Rock Rd","City","Bus","No","APC Fall 2016",0,3,3,0,0,0,0,0,0,40.030198,-75.254066,"{566507B7-A4E2-465F-89CB-1725D5433A2E}","2016"
7475,"5230132N","52","N",30132,85,"HAGFL3SW","Hagys Ford Rd & Flat Rock Rd - MBFS","City","Bus","No","APC Fall 2016",0,1,1,0,0,0,0,0,0,40.032049,-75.256449,"{FA8CE86C-2714-4392-8DB7-5258C32F2542}","2016"
7476,"5221796N","52","N",21796,86,"HAGHOLNW","Hagys Ford Rd & Hollow Rd","City","Bus","No","APC Fall 2016",0,1,1,0,0,0,0,0,0,40.034185,-75.258679,"{F157369A-4377-4781-BBAF-5A0B244499D4}","2016"
7477,"5221658N","52","N",21658,87,"HAGBOBNW","Hagys Ford Rd & Bobarn Rd - FS","City","Bus","No","APC Fall 2016",0,1,1,0,0,0,0,0,0,40.035042,-75.259079,"{9733B536-81FB-43D6-A262-725BEF059F0D}","2016"
7478,"5229570N","52","N",29570,88,"HABBOANO","Hagys Ford Rd & Bobarn Rd - MBFS","City","Bus","No","APC Fall 2016",0,0,0,0,0,0,0,0,0,40.036274,-75.25943,"{468A1936-4EFE-40CD-BAE3-D8D5D84022BB}","2016"
7479,"5229571N","52","N",29571,89,"HAGCHEEA","Hagys Ford Rd & Chermar Ln","City","Bus","No","APC Fall 2016",0,0,0,0,0,0,0,0,0,40.038023,-75.258539,"{449A264A-620C-4C90-9938-2C8C76350610}","2016"
7480,"5229572N","52","N",29572,90,"OAKOAKEA","Oakwood Dr & Oakwood Ter - FS","City","Bus","No","APC Fall 2016",0,1,1,0,0,0,0,0,0,40.038869,-75.257485,"{0E9A3996-D12F-43C6-B573-E5FD56B9183C}","2016"
7481,"5230135N","52","N",30135,91,"OAKOAWNE","Oakwood Ter & Oakwood Dr - MBFS","City","Bus","No","APC Fall 2016",0,1,1,0,0,0,0,0,0,40.039501,-75.255994,"{07BA5221-0433-4CD7-98A8-14FB4DFE62BD}","2016"
7482,"5230223N","52","N",30223,92,"OAKLOONO","Oakhill Apartments Loop","City","Bus","No","APC Fall 2016",0,3,3,0,0,0,0,0,0,40.040856,-75.254867,"{0674F688-EA62-47A0-ADDF-9C1A3E8B4035}","2016"
7483,"5230134N","52","N",30134,93,"OAKOAWSW","Oakwood Dr & Oakwood Ter - MBNS","City","Bus","No","APC Fall 2016",0,0,0,0,0,0,0,0,0,40.039528,-75.256159,"{BA9E5991-DB45-459A-BF2D-574E2B21775C}","2016"
7484,"5229573N","52","N",29573,94,"OAKOAKWE","Oakwood Dr & Oakwood Ter","City","Bus","No","APC Fall 2016",0,0,0,0,0,0,0,0,0,40.038994,-75.257508,"{F4E17063-96B8-49D6-9104-6B92036FD94C}","2016"
7485,"5229574N","52","N",29574,95,"HAGCHEWE","Hagys Ford Rd & Chermar Ln - FS","City","Bus","No","APC Fall 2016",0,0,0,0,0,0,0,0,0,40.03813,-75.258681,"{803CE4F3-201A-4EFB-8736-8791D1CB3CA9}","2016"
7486,"5229575N","52","N",29575,96,"HAGBOASE","Hagys Ford Rd & Bobarn Dr - MBNS","City","Bus","No","APC Fall 2016",0,0,0,0,0,0,0,0,0,40.036257,-75.259596,"{FAD7E755-A24B-464B-B5F0-4BF826E34B1C}","2016"
7487,"5221663N","52","N",21663,97,"HAGBOBSE","Hagys Ford Rd & Bobarn Dr","City","Bus","No","APC Fall 2016",0,0,0,0,0,0,0,0,0,40.034927,-75.259268,"{E77381A2-E3EA-4B3B-95BF-9E93412B6F82}","2016"
7488,"5231210N","52","N",31210,98,"HOLCONSW","Hollow Rd & Conshohocken State Rd","City","Bus","No","APC Fall 2016",0,1,1,0,0,0,0,0,0,40.031183,-75.263001,"{6ADBDAC4-B547-4F3D-94A2-34B80BF8311D}","2016"
7489,"5221799N","52","N",21799,99,"CONMAPNW","Conshohocken State Rd & Maplecrest","City","Bus","No","APC Fall 2016",0,1,1,0,0,0,0,0,0,40.037065,-75.277612,"{81FBBBC7-909F-4F2F-9982-6C4A46849B87}","2016"
7490,"5230136N","52","N",30136,100,"YOURIGSW","Youngs Ford Rd & Righters Mill Rd","City","Bus","No","APC Fall 2016",0,36,36,0,0,0,0,0,0,40.038024,-75.280247,"{AEEB0317-08F4-44DF-AD68-12641D5E2982}","2016"
7491,"5230136S","52","S",30136,1,"YOURIGSW","Youngs Ford Rd & Righters Mill Rd","City","Bus","No","APC Fall 2016",17,0,17,0,0,0,0,0,0,40.038024,-75.280247,"{07447650-7372-4246-B18A-DFCDA5D1B53E}","2016"
7492,"5221652S","52","S",21652,2,"BLACONNE","Black Rock Rd & Conshohocken State","City","Bus","No","APC Fall 2016",1,0,1,0,0,0,0,0,0,40.03954,-75.279853,"{58D00EAC-B791-44AD-9138-01F939EE0D06}","2016"
7493,"5221653S","52","S",21653,3,"CONMAPSE","Conshohocken State Rd & Maplecrest","City","Bus","No","APC Fall 2016",0,0,0,0,0,0,0,0,0,40.037164,-75.277908,"{122384FD-7B55-4D10-BA31-104A637A3149}","2016"
7494,"5230137S","52","S",30137,4,"CONMILSE","Conshohocken State Rd & Mill Creek","City","Bus","No","APC Fall 2016",0,0,0,0,0,0,0,0,0,40.031307,-75.269408,"{1C42398D-D803-498C-9A54-77A1934384B6}","2016"
7495,"5221656S","52","S",21656,5,"HOLCONNE","Hollow Rd & Conshohocken State - FS","City","Bus","No","APC Fall 2016",0,0,0,0,0,0,0,0,0,40.031165,-75.262824,"{2CC32262-3B98-4B93-A664-CDE0DAEE85EC}","2016"
7496,"5221658S","52","S",21658,6,"HAGBOBNW","Hagys Ford Rd & Bobarn Rd - FS","City","Bus","No","APC Fall 2016",0,0,0,0,0,0,0,0,0,40.035042,-75.259079,"{5B2309E0-EE80-4750-A41E-8183D6871D42}","2016"
7497,"5229570S","52","S",29570,7,"HABBOANO","Hagys Ford Rd & Bobarn Rd - MBFS","City","Bus","No","APC Fall 2016",0,0,0,0,0,0,0,0,0,40.036274,-75.25943,"{08DD1166-E8B2-490B-83C5-B66460F7969E}","2016"
7498,"5229571S","52","S",29571,8,"HAGCHEEA","Hagys Ford Rd & Chermar Ln","City","Bus","No","APC Fall 2016",0,0,0,0,0,0,0,0,0,40.038023,-75.258539,"{942982D9-1380-4707-86A0-A58E99DD3F2F}","2016"
7499,"5229572S","52","S",29572,9,"OAKOAKEA","Oakwood Dr & Oakwood Ter - FS","City","Bus","No","APC Fall 2016",0,0,0,0,0,0,0,0,0,40.038869,-75.257485,"{44734808-799F-4741-88AC-AA53CD9F1A19}","2016"
7500,"5230135S","52","S",30135,10,"OAKOAWNE","Oakwood Ter & Oakwood Dr - MBFS","City","Bus","No","APC Fall 2016",2,0,2,0,0,0,0,0,0,40.039501,-75.255994,"{AF13D684-3242-4627-9100-D5E66E71D4B1}","2016"
7501,"5230223S","52","S",30223,11,"OAKLOONO","Oakhill Apartments Loop","City","Bus","No","APC Fall 2016",1,0,1,0,0,0,0,0,0,40.040856,-75.254867,"{85E0507B-190A-4293-A494-A69CF3F4C957}","2016"
7502,"5230134S","52","S",30134,12,"OAKOAWSW","Oakwood Dr & Oakwood Ter - MBNS","City","Bus","No","APC Fall 2016",1,0,1,0,0,0,0,0,0,40.039528,-75.256159,"{8A506ED7-7032-4076-A8F2-B6A09C00248C}","2016"
7503,"5229573S","52","S",29573,13,"OAKOAKWE","Oakwood Dr & Oakwood Ter","City","Bus","No","APC Fall 2016",0,0,0,0,0,0,0,0,0,40.038994,-75.257508,"{66374E65-ABD8-4597-B686-F479AD970307}","2016"
7504,"5229574S","52","S",29574,14,"HAGCHEWE","Hagys Ford Rd & Chermar Ln - FS","City","Bus","No","APC Fall 2016",0,0,0,0,0,0,0,0,0,40.03813,-75.258681,"{DD06B9F1-EE3B-4CFF-99E8-3542F86A7218}","2016"
7505,"5229575S","52","S",29575,15,"HAGBOASE","Hagys Ford Rd & Bobarn Dr - MBNS","City","Bus","No","APC Fall 2016",0,0,0,0,0,0,0,0,0,40.036257,-75.259596,"{66057E04-76BC-4166-ADCD-18FDE55BC175}","2016"
7506,"5221663S","52","S",21663,16,"HAGBOBSE","Hagys Ford Rd & Bobarn Dr","City","Bus","No","APC Fall 2016",0,0,0,0,0,0,0,0,0,40.034927,-75.259268,"{F2243ADF-A0EC-4071-A6FA-0A4275A39364}","2016"
7507,"5221667S","52","S",21667,17,"HAGTOWSE","Hagys Ford Rd & Tower Ln - MBFS","City","Bus","No","APC Fall 2016",1,0,1,0,0,0,0,0,0,40.032514,-75.257288,"{2EEF5E63-1258-49B3-B53C-F538E308EF6F}","2016"
7508,"5221668S","52","S",21668,18,"HAGFLASE","Hagys Ford Rd & Flat Rock Rd","City","Bus","No","APC Fall 2016",3,0,3,0,0,0,0,0,0,40.030234,-75.254361,"{1E9ED6FB-73D8-48B4-A3A6-F8289BE09947}","2016"
7509,"5229558S","52","S",29558,19,"HAGFLTSE","Hagys Ford Rd & Flat Rock Rd - MBFS","City","Bus","No","APC Fall 2016",0,0,0,0,0,0,0,0,0,40.029152,-75.253016,"{57A06990-79B3-4FF5-A6D3-1076F21DFE9A}","2016"
7510,"5229556S","52","S",29556,20,"HAGTOWSW","Hagys Ford Rd & Tower Ln - MBNS","City","Bus","No","APC Fall 2016",1,0,1,0,0,0,0,0,0,40.027511,-75.25347,"{EC6C81C7-44D6-4A31-97B7-9EB5CD9FCB50}","2016"
7511,"5229557S","52","S",29557,21,"HAGTOESW","Hagys Ford Rd & Tower Ln","City","Bus","No","APC Fall 2016",0,0,0,0,0,0,0,0,0,40.026568,-75.255706,"{AAEE22D2-6698-4591-8183-4CAF3EF8761A}","2016"
7512,"5221669S","52","S",21669,22,"CONHAGSE","Conshohocken & Hagys Ford Rd - FS","City","Bus","No","APC Fall 2016",1,0,1,0,0,0,0,0,0,40.025241,-75.257683,"{B53092A3-2794-4B61-9B44-9B1C9F96C663}","2016"
7513,"5221673S","52","S",21673,23,"CONCENSE","Conshohocken St & Centennial Rd","City","Bus","No","APC Fall 2016",0,0,0,0,0,0,0,0,0,40.023489,-75.256068,"{A6855A3E-4F91-4DAA-9E4C-1C26C93352C9}","2016"
7514,"5231450S","52","S",31450,24,"CONMARSE","Conshohocken State Rd & Mary Waters Ford Rd","City","Bus","No","APC Fall 2016",3,0,3,0,0,0,0,0,0,40.020627,-75.245922,"{353044DE-CF1B-4B84-9BCB-1C5C1F472673}","2016"
7515,"5229559S","52","S",29559,25,"CONMANEA","Conshohocken State Rd & Manayunk Rd - FS","City","Bus","No","APC Fall 2016",0,0,0,0,0,0,0,0,0,40.018796,-75.244401,"{2BCDF874-B27A-4E7B-9647-8898611090DC}","2016"
7516,"5221677S","52","S",21677,26,"CONROCSE","Conshohocken State Rd & RockHill Rd","City","Bus","No","APC Fall 2016",0,0,0,0,0,0,0,0,0,40.018254,-75.24029,"{8AC7B7B9-A659-4317-907E-2BEBF40956BF}","2016"
7517,"5229561S","52","S",29561,27,"CONROCSO","Conshohocken State Rd & Rockhill Rd","City","Bus","No","APC Fall 2016",0,0,0,0,0,0,0,0,0,40.017441,-75.239594,"{39513383-599B-4B9D-9CCC-E334E9418C5B}","2016"
7518,"5229560S","52","S",29560,28,"CONDARSE","Conshohocken & Dartmouth - FS","City","Bus","No","APC Fall 2016",0,0,0,0,0,0,0,0,0,40.016726,-75.238875,"{A159424A-4633-4763-B216-1B8699648F6A}","2016"
7519,"5229563S","52","S",29563,29,"CONOVESE","Conshohocken State Rd & Overhill Rd","City","Bus","No","APC Fall 2016",0,0,0,0,0,0,0,0,0,40.015171,-75.237544,"{43BAA2E7-FC84-407D-9479-DAFEA04F07B7}","2016"
7520,"5221678S","52","S",21678,30,"CONLEVSE","Conshohocken State Rd & LeveringMil","City","Bus","No","APC Fall 2016",0,0,0,0,0,0,0,0,0,40.013473,-75.236201,"{6FE18F65-1BEA-4ADC-8BF3-6DCECFE4E4D4}","2016"
7521,"5229562S","52","S",29562,31,"CONDERSE","Conshohocken State Rd & Derwen Rd","City","Bus","No","APC Fall 2016",0,0,0,0,0,0,0,0,0,40.012383,-75.235353,"{3E546ECC-6288-42EA-82C3-2EBC498493DA}","2016"
7522,"5221679S","52","S",21679,32,"CONLODSE","Conshohocken State Rd & Lodges Ln","City","Bus","No","APC Fall 2016",0,0,0,0,0,0,0,0,0,40.010756,-75.234081,"{88427117-FC3F-4767-959A-98EDD3DF36BD}","2016"
7523,"5221680S","52","S",21680,33,"CONBALSO","Conshohocken State Rd & Bala Av","City","Bus","No","APC Fall 2016",0,0,0,0,0,0,0,0,0,40.007532,-75.232802,"{3BD71D34-0372-4388-AD20-5B2233BC03C0}","2016"
7524,"5229565S","52","S",29565,34,"BALMONSO","Bala Av & Montgomery Av","City","Bus","No","APC Fall 2016",0,0,0,0,0,0,0,0,0,40.00647,-75.232462,"{04836586-5599-4501-80A6-94AE09FE944C}","2016"
7525,"5229566S","52","S",29566,35,"BALHIGSO","Bala Av & Highland Av","City","Bus","No","APC Fall 2016",0,0,0,0,0,0,0,0,0,40.005104,-75.232206,"{7329673D-662A-415A-99C6-EA4611655D94}","2016"
7526,"5221682S","52","S",21682,36,"BALUNISE","Bala Av & Union Av","City","Bus","No","APC Fall 2016",0,0,0,0,0,0,0,0,0,40.003174,-75.231277,"{02ECEA0C-EAEC-422A-B44D-9E832921AE1E}","2016"
7527,"52698S","52","S",698,37,"BALCITSO","Bala Av & City Av","City","Bus","No","APC Fall 2016",2,11,13,0,0,0,0,0,0,40.000243,-75.22891,"{A0BE338D-C051-4225-9A0E-79FFE3AF1995}","2016"
7528,"5220561S","52","S",20561,38,"CITBRYSW","City Av & Bryn Mawr Av","City","Bus","No","APC Fall 2016",1,0,1,0,0,0,0,0,0,39.99922,-75.230851,"{C7A791A2-904D-4E54-A357-08E40FE8579F}","2016"
7529,"5231283S","52","S",31283,39,"CITMAPSW","City Av & Maple Av","City","Bus","No","APC Fall 2016",0,0,0,0,0,0,0,0,0,39.998153,-75.233158,"{B316CF4C-44F4-4A9F-A387-595D72229324}","2016"
7530,"5230138S","52","S",30138,40,"54TCITSO","54th St & City Av - MBFS","City","Bus","No","APC Fall 2016",577,2,579,402,0,402,336,0,336,39.995986,-75.23457,"{3A7F1CAD-BA8C-4070-87E7-0A59F330F10F}","2016"
7531,"5221683S","52","S",21683,41,"54TOVESO","54th St & Overbrook Av","City","Bus","No","APC Fall 2016",84,3,87,41,2,43,17,0,17,39.994888,-75.234136,"{2A31E9C9-7FEB-4D95-8066-855AEDCBDB16}","2016"
7532,"5221684S","52","S",21684,42,"54TWOOSO","54th St & Woodbine Av","City","Bus","No","APC Fall 2016",39,4,43,19,2,21,15,6,21,39.992335,-75.233789,"{8858BACD-529A-48C9-A37B-F7E734EEEA29}","2016"
7533,"5221685S","52","S",21685,43,"54TWODSO","54th St & Woodcrest Av","City","Bus","No","APC Fall 2016",68,9,77,40,14,54,40,5,45,39.990799,-75.233604,"{19EAE700-B1C1-411C-8B94-5522DB62F3FF}","2016"
7534,"5221686S","52","S",21686,44,"54TGAISO","54th St & Gainor Rd","City","Bus","No","APC Fall 2016",60,14,74,48,6,54,41,7,48,39.988995,-75.23303,"{B6EE3E4A-E1E3-465C-81A0-CAA14FC64543}","2016"
7535,"5221687S","52","S",21687,45,"54TLEBSO","54th St & Lebanon Av","City","Bus","No","APC Fall 2016",123,27,150,59,15,74,55,14,69,39.987468,-75.232514,"{A2D24CC4-19C9-41E8-9ECF-1693981A25B6}","2016"
7536,"5221688S","52","S",21688,46,"54TBERSO","54th St & Berks St","City","Bus","No","APC Fall 2016",275,55,330,144,26,170,114,16,130,39.985941,-75.231975,"{3AF63E7D-F0E0-41EB-ADC6-827C57CA0F19}","2016"
7537,"5222217S","52","S",22217,47,"54TMONSO","54th St & Montgomery Av","City","Bus","No","APC Fall 2016",208,46,254,128,28,156,98,25,123,39.984155,-75.231365,"{E66C6232-E61D-4B41-A04E-C23EC7DB8655}","2016"
7538,"5221689S","52","S",21689,48,"54TUPLSO","54th St & Upland Way","City","Bus","No","APC Fall 2016",77,13,90,41,7,48,36,8,44,39.982575,-75.230826,"{98BAC362-E3C4-495E-A832-B22A3CC15214}","2016"
7539,"5221690S","52","S",21690,49,"54TOXFSO","54th St & Oxford St","City","Bus","No","APC Fall 2016",22,5,27,13,1,14,7,1,8,39.981771,-75.230321,"{F0757932-FBB0-4855-ACDB-169C592FB3F9}","2016"
7540,"5225982S","52","S",25982,50,"JEF53RSE","Jefferson St & 53rd St","City","Bus","No","APC Fall 2016",39,17,56,16,7,23,9,2,11,39.980438,-75.228269,"{E14BB489-011A-4CA7-BFAD-DFADCB3688F6}","2016"
7541,"5221691S","52","S",21691,51,"JEFLINSE","Jefferson St & Lindenwood St","City","Bus","No","APC Fall 2016",53,12,65,41,10,51,27,6,33,39.980097,-75.227301,"{966EA02C-75E9-4706-9B2E-203FFD5D42D4}","2016"
7542,"5222218S","52","S",22218,52,"JEF52NSE","Jefferson St & 52nd St","City","Bus","No","APC Fall 2016",390,78,468,286,72,358,226,52,278,39.979443,-75.225507,"{9942CC54-8F27-4395-9EB0-4C87A637DBCB}","2016"
7543,"5230771S","52","S",30771,53,"PARLOOSO","50th & Parkside Loop","City","Bus","No","APC Fall 2016",59,0,59,0,0,0,0,0,0,39.978201,-75.219687,"{F58CF842-81EE-441B-B059-B95A7EE01C9F}","2016"
7544,"5230844S","52","S",30844,54,"50TPARNO","50th St & Parkside Av","City","Bus","No","APC Fall 2016",8,1,9,0,0,0,0,0,0,39.979825,-75.219328,"{1EC50365-F14B-4E0E-B4DB-6DA1E24A5252}","2016"
7545,"5221754S","52","S",21754,55,"PAR51SNW","Parkside Av & 51st St","City","Bus","No","APC Fall 2016",19,0,19,0,0,0,0,0,0,39.980775,-75.221392,"{57989154-1326-452F-B67B-CBDAE3D68CAB}","2016"
7546,"5221755S","52","S",21755,56,"PARPAXNW","Parkside Av & Paxon St","City","Bus","No","APC Fall 2016",5,0,5,0,0,0,0,0,0,39.981178,-75.222371,"{64F982CD-8467-4E97-8421-19B5ECC81123}","2016"
7547,"5221757S","52","S",21757,57,"52NCOLSW","52nd St & Columbia Av","City","Bus","No","APC Fall 2016",5,3,8,0,0,0,0,0,0,39.980566,-75.224748,"{AE682ED9-05E3-4AD9-B910-90A5FEF3C0BF}","2016"
7548,"5231270S","52","S",31270,58,"52NJEFSO","52nd St & Jefferson St","City","Bus","No","APC Fall 2016",91,4,95,0,0,0,0,0,0,39.979594,-75.225341,"{DCBED405-9563-4A1D-B981-C1BBE4B622BB}","2016"
7549,"5231039S","52","S",31039,59,"PARWESWE","Parkwest Town Center","City","Bus","No","APC Fall 2016",243,79,322,142,45,187,75,24,99,39.978715,-75.222733,"{35EDF68F-CECB-41A2-867D-BD32DDC3890A}","2016"
7550,"5221692S","52","S",21692,60,"52NLANSO","52nd St & Lancaster Av - FS","City","Bus","No","APC Fall 2016",496,125,621,220,57,277,188,45,233,39.977017,-75.22692,"{551F4F22-58D5-42B9-ACB4-CF021AD8C799}","2016"
7551,"5221693S","52","S",21693,61,"52NMEDSO","52nd St & Media St","City","Bus","No","APC Fall 2016",175,28,203,61,6,67,37,7,44,39.975812,-75.226746,"{A0AFEBE0-334A-447A-9CF0-C7F453285237}","2016"
7552,"5221694S","52","S",21694,62,"52NMASSO","52nd St & Master St - FS","City","Bus","No","APC Fall 2016",214,41,255,115,27,142,82,22,104,39.974107,-75.22642,"{65F98100-44FB-4390-9433-9F923FC36D04}","2016"
7553,"5221695S","52","S",21695,63,"52NTHOSO","52nd St & Thompson St - FS","City","Bus","No","APC Fall 2016",156,39,195,100,29,129,63,18,81,39.97275,-75.226176,"{ADA6E1C3-FA49-4A10-81B4-740218CF8CC2}","2016"
7554,"52767S","52","S",767,64,"52NGIRSO","52nd St & Girard Av - FS","City","Bus","No","APC Fall 2016",589,160,749,336,117,453,273,86,359,39.971241,-75.225873,"{58DB2031-8565-4F80-A819-25CFD7DDCD6D}","2016"
7555,"5221696S","52","S",21696,65,"52NWYASO","52nd St & Wyalusing Av - FS","City","Bus","No","APC Fall 2016",129,30,159,71,15,86,49,14,63,39.969313,-75.22543,"{1495DA62-4EA0-4E66-9721-2BE6A5712C0B}","2016"
7556,"5221697S","52","S",21697,66,"52NWESSO","52nd St & Westminster Av - FS","City","Bus","No","APC Fall 2016",196,49,245,133,29,162,85,27,112,39.967929,-75.225186,"{B91147A4-6589-4955-BB3C-623BA96974F7}","2016"
7557,"5221698S","52","S",21698,67,"52NPARSO","52nd St & Parrish St - FS","City","Bus","No","APC Fall 2016",145,53,198,78,32,110,51,33,84,39.966411,-75.224954,"{B3BCA44D-93B4-421E-B129-DA1CFEF8F946}","2016"
7558,"52768S","52","S",768,68,"52NHAVSO","52nd St & Haverford Av - FS","City","Bus","No","APC Fall 2016",241,99,340,118,54,172,76,47,123,39.964697,-75.224651,"{B4DEF2FD-7D3E-430C-8215-6871C98C4E4F}","2016"
7559,"5221699S","52","S",21699,69,"52NRACSO","52nd St & Race St","City","Bus","No","APC Fall 2016",95,50,145,42,18,60,43,27,70,39.963153,-75.224325,"{41E89A4A-2691-4FBD-BCED-B46B409955E7}","2016"
7560,"5221700S","52","S",21700,70,"52NARCSO","52nd St & Arch St - FS","City","Bus","No","APC Fall 2016",22,65,87,10,51,61,7,38,45,39.961404,-75.224696,"{3CA31CDB-5EA4-4A2C-B2FB-9CB0692B65BA}","2016"
7561,"52769S","52","S",769,71,"52NMARSO","52nd St & Market St","City","Bus","No","APC Fall 2016",1323,1867,3190,575,943,1518,418,664,1082,39.9602,-75.224948,"{C66EEEED-73BC-40AC-AD55-583BED9E6C5C}","2016"
7562,"5221701S","52","S",21701,72,"52NCHESO","52nd St & Chestnut St","City","Bus","No","APC Fall 2016",355,174,529,158,92,250,114,78,192,39.958567,-75.225283,"{2FCDAA85-4B30-40DE-9945-33DE4573DF7A}","2016"
7563,"5221702S","52","S",21702,73,"52NWALSO","52nd St & Walnut St","City","Bus","No","APC Fall 2016",238,142,380,133,92,225,86,45,131,39.957059,-75.225571,"{93DE3517-73A5-4230-BF5F-FB8636384A43}","2016"
7564,"5221703S","52","S",21703,74,"52NLOCSO","52nd St & Locust St - FS","City","Bus","No","APC Fall 2016",45,60,105,19,31,50,14,21,35,39.955569,-75.225906,"{73C0175A-3A47-4A93-8926-022A851493BE}","2016"
7565,"5221704S","52","S",21704,75,"52NSPRSO","52nd St & Spruce St - FS","City","Bus","No","APC Fall 2016",180,209,389,101,111,212,89,75,164,39.954427,-75.226133,"{137BDE49-9D27-4E65-9EC6-923EC3882B93}","2016"
7566,"5221705S","52","S",21705,76,"52NPINSO","52nd St & Pine St","City","Bus","No","APC Fall 2016",50,84,134,17,39,56,22,25,47,39.953633,-75.226313,"{8477A864-B3A0-459B-997F-C0D3D86F73EC}","2016"
7567,"5221706S","52","S",21706,77,"52NLARSO","52nd St & Larchwood St","City","Bus","No","APC Fall 2016",51,141,192,24,82,106,20,49,69,39.952098,-75.226612,"{028CF8C3-361E-40A5-A9BB-06ED1795D617}","2016"
7568,"5221707S","52","S",21707,78,"52NCEDSO","52nd St & Cedar Av","City","Bus","No","APC Fall 2016",93,239,332,30,80,110,36,72,108,39.950564,-75.226936,"{3BC6D1D5-66BE-40EC-B494-CCDA02A81144}","2016"
7569,"5221708S","52","S",21708,79,"52NCATSO","52nd St & Catherine St - FS","City","Bus","No","APC Fall 2016",27,96,123,14,67,81,16,39,55,39.948797,-75.227318,"{1CA12234-934F-472C-9CD5-A77718A58FF3}","2016"
7570,"52771S","52","S",771,80,"52NBALSO","52nd St & Baltimore Av","City","Bus","No","APC Fall 2016",190,391,581,99,216,315,81,161,242,39.94787,-75.227498,"{7126D812-C1E9-4860-8820-BC7820A6F65E}","2016"
7571,"5221709S","52","S",21709,81,"WHI53RSW","Whitby Av & 53rd St - FS","City","Bus","No","APC Fall 2016",7,21,28,1,7,8,2,18,20,39.946006,-75.228731,"{0C855BEB-A8C4-4D21-934D-DFF4C6D4F2B6}","2016"
7572,"5221710S","52","S",21710,82,"54TWHISE","54th St & Whitby Av - FS","City","Bus","No","APC Fall 2016",42,208,250,30,104,134,16,84,100,39.945133,-75.229501,"{D3106AEA-20AE-47B3-8E36-515D0019DFBD}","2016"
7573,"5221711S","52","S",21711,83,"54TWILSE","54th St & Willows Av","City","Bus","No","APC Fall 2016",45,182,227,20,102,122,24,67,91,39.944158,-75.228312,"{939DF9FA-4D3F-47FE-8E6E-6122C9E094EC}","2016"
7574,"5221712S","52","S",21712,84,"54TFLOSE","54th St & Florence Av","City","Bus","No","APC Fall 2016",64,233,297,33,101,134,37,89,126,39.942969,-75.226945,"{AAC68014-32F4-4D82-A5FB-EC92DB02A0E1}","2016"
7575,"5221713S","52","S",21713,85,"54TWARSE","54th St & Warrington St","City","Bus","No","APC Fall 2016",76,253,329,11,80,91,9,66,75,39.941887,-75.225661,"{7F93C69D-0BA4-48F6-ABD1-A69D4587B0CA}","2016"
7576,"5221714S","52","S",21714,86,"54TSPRSE","54th St & Springfield Av","City","Bus","No","APC Fall 2016",23,146,169,8,54,62,11,60,71,39.940724,-75.224295,"{AE20377A-AB08-4FD5-A6E2-0FD9A4BD2585}","2016"
7577,"52776S","52","S",776,87,"54TCHESE","54th St & Chester Av","City","Bus","No","APC Fall 2016",113,433,546,32,306,338,28,217,245,39.939696,-75.223058,"{08AD7DF4-BC4E-42EB-90DD-EE9EAAE83F79}","2016"
7578,"5221257S","52","S",21257,88,"54TCHENW","54th St & Chester Av","City","Bus","No","APC Fall 2016",0,293,293,0,0,0,0,0,0,39.93958,-75.222775,"{50B9B935-7EAD-48F1-A847-03E95E34B569}","2016"
7579,"5221715S","52","S",21715,89,"54TKINSE","54th St & Kingsessing Av","City","Bus","No","APC Fall 2016",10,85,95,11,66,77,5,50,55,39.938659,-75.221798,"{EB7E2A3C-42B7-462E-8AC1-25ACB3C2014F}","2016"
7580,"5221716S","52","S",21716,90,"GRE54TNE","Greenway Av & 54th St - FS","City","Bus","No","APC Fall 2016",13,349,362,4,180,184,5,144,149,39.937522,-75.220018,"{2D435AD6-25E1-43D4-ADB4-99DB3477D690}","2016"
7581,"5221717S","52","S",21717,91,"GRE53RNE","Greenway Av & 53rd St","City","Bus","No","APC Fall 2016",7,100,107,2,62,64,0,35,35,39.938306,-75.218883,"{3108C0CF-ACCA-4D34-B71B-E835CEF842A3}","2016"
7582,"5221718S","52","S",21718,92,"GRE52NNE","Greenway Av & 52nd St","City","Bus","No","APC Fall 2016",6,117,123,3,64,67,2,47,49,39.939267,-75.21751,"{1E7475D3-0C88-497D-A306-202FADF77616}","2016"
7583,"5221719S","52","S",21719,93,"GRE51SNE","Greenway Av & 51st St","City","Bus","No","APC Fall 2016",6,68,74,3,23,26,1,32,33,39.940069,-75.216374,"{6CD23949-6D01-4F21-AC19-359D7F5FCDD9}","2016"
7584,"5221720S","52","S",21720,94,"GRE50TNE","Greenway Av & 50th St","City","Bus","No","APC Fall 2016",12,74,86,7,38,45,38,26,64,39.940959,-75.215132,"{7215221F-7449-4D37-99F2-B3195AA56353}","2016"
7585,"5230185S","52","S",30185,95,"GRE49TNE","Greenway Av & 49th St","City","Bus","No","APC Fall 2016",1,85,86,4,43,47,2,43,45,39.941832,-75.21389,"{DA1A11BC-0610-48E3-A7D7-4ACEEF760B09}","2016"
7586,"5221256S","52","S",21256,96,"49TWOOSE","49th St & Woodland Av","City","Bus","No","APC Fall 2016",0,632,632,0,366,366,0,320,320,39.940866,-75.212759,"{92928B34-4CDD-4259-A220-B38329122127}","2016"
